City Name,Tempature,Max Tempature,Cloudiness,Humidity,Country,Wind Speed,Latitude,Longitude,Date/Time
Praia,68.0,68.0,75,68,CV,18.41,14.9215,-23.5087,1612577498
Arraial do Cabo,74.88,74.88,100,96,BR,14.0,-22.9661,-42.0278,1612577225
Longyearbyen,24.8,24.8,75,86,SJ,10.36,78.2186,15.6401,1612577164
Benguela,73.44,73.44,90,77,AO,3.47,-12.5763,13.4055,1612577501
Busselton,65.61,66.0,100,68,AU,4.0,-33.65,115.3333,1612576989
Punta Arenas,46.2,46.4,40,66,CL,8.05,-53.15,-70.9167,1612577116
Ponta do Sol,46.85,51.01,46,69,PT,3.0,32.6667,-17.1,1612576975
Ushuaia,46.4,46.4,40,76,AR,27.63,-54.8,-68.3,1612577051
São João da Barra,76.14,76.14,100,94,BR,6.04,-21.6403,-41.0511,1612576871
Atuona,79.3,79.3,61,82,PF,18.81,-9.8,-139.0333,1612577075
Turki,8.22,8.22,100,94,RU,14.18,51.987,43.2731,1612577510
Albany,33.49,35.6,90,80,US,4.85,42.6001,-73.9662,1612576816
Rikitea,77.29,77.29,2,76,PF,18.59,-23.1203,-134.9692,1612576851
Miragoâne,78.24,78.24,2,75,HT,0.94,18.4423,-73.0876,1612577513
Clyde River,-14.8,-14.8,90,76,CA,6.91,70.4692,-68.5914,1612577514
Cape Town,66.51,69.01,0,88,ZA,17.27,-33.9258,18.4232,1612576853
Tshikapa,71.11,71.11,100,91,CD,2.15,-6.4167,20.8,1612577517
Kruisfontein,66.99,66.99,72,90,ZA,1.01,-34.0033,24.7314,1612577492
Khatanga,-34.49,-34.49,5,78,RU,6.73,71.9667,102.5,1612577191
Kodinsk,-0.42,-0.42,99,92,RU,3.83,58.6881,99.1844,1612577520
Yantzaza,68.34,68.34,94,83,EC,1.41,-3.8278,-78.7594,1612577521
Hermanus,64.99,64.99,4,88,ZA,1.01,-34.4187,19.2345,1612577489
College,-7.17,-2.2,75,70,US,3.44,64.8569,-147.8028,1612577523
Meulaboh,80.02,80.02,30,79,ID,3.49,4.1363,96.1285,1612577441
Butaritari,81.41,81.41,21,80,KI,17.94,3.0707,172.7902,1612577035
Polokwane,68.0,68.0,100,88,ZA,3.44,-23.9045,29.4688,1612577527
Port Alfred,70.0,70.0,100,93,ZA,1.01,-33.5906,26.891,1612577059
Alofi,80.6,80.6,100,83,NU,13.8,-19.0595,-169.9187,1612577529
Bredasdorp,60.8,60.8,0,94,ZA,1.14,-34.5322,20.0403,1612577046
Edson,-3.12,-2.2,1,84,CA,3.44,53.5835,-116.4356,1612577531
Cidreira,66.79,66.79,0,75,BR,13.15,-30.1811,-50.2056,1612577532
Puerto Maldonado,74.05,74.05,1,94,PE,1.45,-12.6,-69.1833,1612577533
Bridlington,42.67,43.0,100,91,GB,5.99,54.0831,-0.1919,1612577536
Vaini,82.4,82.4,75,89,TO,8.05,-21.2,-175.2,1612577071
Bluff,60.96,60.96,16,69,NZ,4.23,-46.6,168.3333,1612577250
Severo-Kuril'sk,16.9,16.9,59,81,RU,6.02,50.6789,156.125,1612577359
Yulara,80.6,80.6,17,26,AU,12.66,-25.2406,130.9889,1612577541
Barrow,-9.4,-9.4,20,70,US,9.22,71.2906,-156.7887,1612576992
Lluta,55.4,55.4,75,82,PE,3.24,-16.0147,-72.0142,1612577543
Hilo,69.89,75.2,90,60,US,9.22,19.7297,-155.09,1612577101
Poum,79.9,79.9,9,71,NC,7.31,-20.2333,164.0167,1612577537
Xiaoweizhai,54.21,54.21,82,77,CN,2.19,26.1903,107.5125,1612577546
Mataura,76.14,76.14,91,47,NZ,4.12,-46.1927,168.8643,1612577548
Krasnovishersk,35.24,35.24,100,98,RU,8.57,60.4078,57.082,1612577549
Beeville,56.79,57.2,90,62,US,6.91,28.4008,-97.7483,1612577430
Tuktoyaktuk,-31.0,-31.0,75,68,CA,9.22,69.4541,-133.0374,1612576994
Vila Velha,81.66,82.4,75,74,BR,10.36,-20.3297,-40.2925,1612577505
Malakal,68.43,68.43,100,23,SS,12.26,9.5334,31.6605,1612577554
Sechura,77.23,77.23,97,62,PE,14.56,-5.5569,-80.8222,1612577555
Kapaa,71.82,72.0,1,56,US,8.05,22.0752,-159.319,1612577193
Narsaq,14.0,14.0,0,57,GL,2.3,60.9167,-46.05,1612577271
Taltal,63.57,63.57,36,79,CL,0.98,-25.4,-70.4833,1612577560
Mar del Plata,68.16,70.0,0,55,AR,4.61,-38.0023,-57.5575,1612576978
Nikolskoye,7.95,9.0,75,78,RU,13.42,59.7035,30.7861,1612577292
Mnogovershinnyy,-8.05,-8.05,100,91,RU,5.1,53.9353,139.9242,1612577563
Bandarbeyla,72.79,72.79,0,72,SO,8.01,9.4942,50.8122,1612577529
Kupang,80.6,80.6,75,94,ID,8.05,-10.1667,123.5833,1612577566
Ormara,64.58,64.58,0,55,PK,4.41,25.2088,64.6357,1612577567
Puerto Ayora,77.0,77.0,53,95,EC,5.01,-0.7393,-90.3518,1612577485
Pataskala,28.35,30.2,75,64,US,8.05,39.9956,-82.6743,1612577569
Iqaluit,21.2,21.2,75,86,CA,18.41,63.7506,-68.5145,1612577573
Mossamedes,70.03,70.03,71,82,AO,7.27,-15.1961,12.1522,1612577574
Hithadhoo,81.9,81.9,100,80,MV,16.37,-0.6,73.0833,1612577575
Kieta,86.14,86.14,87,67,PG,8.99,-6.2167,155.6333,1612577576
Xining,25.41,25.41,100,55,CN,1.83,36.6167,101.7667,1612577416
Ca Mau,82.8,82.8,37,60,VN,11.34,9.1769,105.15,1612577578
New Norfolk,73.6,75.99,35,72,AU,4.0,-42.7826,147.0587,1612576978
Haldia,64.13,64.13,0,46,IN,5.14,22.0605,88.1097,1612577580
San Patricio,58.28,60.8,90,72,US,12.66,28.017,-97.5169,1612577581
Lompoc,53.69,55.4,1,71,US,8.05,34.6391,-120.4579,1612577131
Atar,57.34,57.34,100,57,MR,9.75,20.5169,-13.0499,1612577298
East London,73.56,73.56,97,90,ZA,10.42,-33.0153,27.9116,1612577169
Manuk Mangkaw,80.76,80.76,100,79,PH,9.08,4.8,119.85,1612577590
Zambezi,65.1,65.1,100,95,ZM,2.71,-13.5432,23.1047,1612577591
Kamaishi,35.6,35.6,75,93,JP,2.3,39.2667,141.8833,1612577593
Thunder Bay,0.01,1.0,40,65,CA,12.66,48.4001,-89.3168,1612577594
Castro,58.95,58.95,0,64,BR,4.16,-24.7911,-50.0119,1612576838
Bagdarin,-7.38,-7.38,0,81,RU,3.8,54.4333,113.6,1612577597
Saldanha,62.6,62.6,0,88,ZA,10.36,-33.0117,17.9442,1612577491
Vilyuysk,-39.41,-39.41,36,81,RU,3.8,63.7553,121.6247,1612577518
Jamestown,21.43,23.0,90,79,US,12.66,42.097,-79.2353,1612577220
Jacareacanga,75.45,75.45,100,94,BR,1.48,-6.2222,-57.7528,1612577601
Pangkalanbuun,84.65,84.65,87,69,ID,3.42,-2.6833,111.6167,1612577602
Qaanaaq,-4.11,-4.11,100,77,GL,7.52,77.484,-69.3632,1612577178
San Andrés,80.6,80.6,20,89,CO,6.91,12.5847,-81.7006,1612577604
Yellowknife,-31.0,-31.0,90,61,CA,9.22,62.456,-114.3525,1612576972
Port Elizabeth,69.8,69.8,90,94,ZA,6.91,-33.918,25.5701,1612577235
Huilong,51.35,53.01,0,71,CN,3.0,31.8111,121.655,1612577608
Socorro,62.38,62.6,1,14,US,20.71,31.6546,-106.3033,1612577609
Kaitangata,62.01,62.01,91,71,NZ,8.01,-46.2817,169.8464,1612576943
Carballo,44.82,46.99,100,89,ES,8.99,43.213,-8.691,1612577611
Luanda,78.8,78.8,40,83,AO,6.91,-8.8368,13.2343,1612577612
Vila Franca do Campo,57.61,57.99,75,94,PT,12.66,37.7167,-25.4333,1612576849
Port Blair,81.12,81.12,0,69,IN,10.58,11.6667,92.75,1612577614
Saint Paul Harbor,39.2,39.2,1,56,US,13.8,57.79,-152.4072,1612577492
Santa Catalina,86.0,86.0,75,70,PH,9.22,9.3337,122.8637,1612577616
Norman Wells,-34.6,-34.6,20,74,CA,4.61,65.282,-126.8329,1612577515
Pimentel,70.0,70.0,100,88,PE,1.99,-6.8367,-79.9342,1612577619
Vardø,27.97,27.97,99,92,NO,25.05,70.3705,31.1107,1612577621
Isangel,87.8,87.8,20,66,VU,3.44,-19.55,169.2667,1612577199
Hof,35.94,37.0,100,98,DE,3.0,50.3167,11.9167,1612577625
Tateyama,55.0,57.2,75,38,JP,16.11,34.9833,139.8667,1612577626
Tignère,65.1,65.1,100,27,CM,3.71,7.3667,12.65,1612577627
Thompson,-22.0,-22.0,75,69,CA,13.8,55.7435,-97.8558,1612577260
Saint-Augustin,28.67,28.67,92,97,CA,9.78,51.226,-58.6502,1612577044
Aklavik,-21.98,-20.2,20,69,CA,5.75,68.2191,-135.0107,1612577496
Cherskiy,-10.35,-10.35,100,78,RU,1.68,68.75,161.3,1612577347
Bullhead City,65.53,66.2,1,22,US,6.91,35.1478,-114.5683,1612577633
Grinnell,8.1,10.99,1,78,US,8.05,41.743,-92.7224,1612577634
Saint-Philippe,73.13,78.8,75,65,RE,6.91,-21.3585,55.7679,1612577349
Avarua,82.4,82.4,75,78,CK,2.3,-21.2078,-159.775,1612577050
Xiaoshi,33.8,33.8,40,75,CN,4.47,41.2971,124.1209,1612577637
Sauce,60.89,61.0,0,82,UY,3.44,-34.6469,-56.0628,1612577638
Bethel,32.22,35.01,1,93,US,5.66,41.3712,-73.414,1612577175
Vitória,81.66,82.4,75,74,BR,10.36,-20.3194,-40.3378,1612577521
Saint-Joseph,73.36,78.8,20,65,RE,6.91,-21.3667,55.6167,1612577641
Karratha,83.61,83.61,52,64,AU,13.71,-20.7377,116.8463,1612577185
Kostanay,33.8,33.8,0,93,KZ,15.66,53.1667,63.5833,1612577643
Yerbogachën,-5.85,-5.85,94,91,RU,3.24,61.2767,108.0108,1612577645
Torbay,34.02,35.01,90,93,CA,26.46,47.6666,-52.7314,1612577115
Namtsy,-40.0,-40.0,99,67,RU,2.24,62.7161,129.6658,1612577647
Carnarvon,82.4,82.4,90,100,AU,24.16,-24.8667,113.6333,1612576983
Ahipara,70.65,70.65,95,68,NZ,4.52,-35.1667,173.1667,1612577649
San Luis,71.46,71.46,0,35,AR,7.99,-33.295,-66.3356,1612577477
Zhigansk,-41.17,-41.17,68,76,RU,4.5,66.7697,123.3711,1612577528
Laguna,57.6,60.8,1,54,US,4.09,38.421,-121.4238,1612577137
Seoul,42.26,44.6,75,76,KR,4.61,37.5683,126.9778,1612577657
Ribeira Grande,59.22,59.22,100,84,PT,13.04,38.5167,-28.7,1612577150
Saskylakh,-32.35,-32.35,74,83,RU,4.74,71.9167,114.0833,1612577525
Lukiv,19.99,19.99,100,91,UA,2.64,51.0521,25.4006,1612577660
Vila,45.0,45.0,100,90,PT,7.67,42.0304,-8.1588,1612577661
Mattru,73.63,73.63,1,86,SL,1.32,7.6244,-11.8332,1612577662
Loudi,52.75,52.75,4,77,CN,2.48,27.7344,111.9944,1612577663
Sibu,77.0,77.0,40,94,MY,3.44,2.3,111.8167,1612577664
Bubaque,78.08,78.08,100,60,GW,15.61,11.2833,-15.8333,1612577665
Puerto Ayacucho,80.01,80.01,78,64,VE,3.53,5.6639,-67.6236,1612577546
Ust-Tsilma,-16.67,-16.67,96,86,RU,9.35,65.441,52.1498,1612577668
Kibala,75.2,75.2,0,31,TD,4.61,9.1104,18.3463,1612577669
Gaillac,53.89,55.99,51,84,FR,1.99,43.9016,1.8969,1612577670
Shimoda,54.55,57.2,75,38,JP,16.11,34.6667,138.95,1612577586
Plouzané,38.57,39.2,40,93,FR,3.44,48.3833,-4.6167,1612577672
Tasiilaq,26.6,26.6,90,74,GL,8.05,65.6145,-37.6368,1612577434
Fortuna,49.73,51.01,90,100,US,8.05,40.5982,-124.1573,1612577675
Nago,73.27,73.4,20,64,JP,9.22,26.5881,127.9761,1612577676
Hofn,37.36,37.36,100,78,IS,15.52,64.2539,-15.2082,1612577678
Tiksi,-23.37,-23.37,100,87,RU,4.88,71.6872,128.8694,1612577571
Formosa do Rio Preto,72.18,72.18,100,88,BR,1.43,-11.0483,-45.1931,1612577680
Porto-Novo,84.2,84.2,40,84,BJ,11.5,6.4965,2.6036,1612577681
Salym,32.4,32.4,100,98,RU,6.67,60.0625,71.4789,1612577682
Yangi Marg`ilon,33.8,33.8,100,64,UZ,6.91,40.4272,71.7189,1612577561
Bani Walid,59.74,59.74,0,33,LY,11.05,31.7566,13.9942,1612577684
Tuatapere,67.91,67.91,23,65,NZ,8.1,-46.1333,167.6833,1612577685
Deputatsky,-22.61,-22.61,100,88,RU,2.39,69.3,139.9,1612577686
Barra Patuca,78.08,78.08,80,83,HN,11.65,15.8,-84.2833,1612577687
George Town,81.18,82.4,20,74,MY,5.41,5.4112,100.3354,1612577174
Paris,46.92,48.0,75,93,FR,4.61,48.8534,2.3488,1612577620
Lata,50.43,51.01,100,98,PT,2.82,40.1629,-8.3327,1612577692
Vaitape,81.68,81.68,3,64,PF,3.83,-16.5167,-151.75,1612577693
Haines Junction,-16.6,-16.6,100,76,CA,1.14,60.7522,-137.5108,1612577694
Saint Anthony,6.31,6.8,1,66,US,16.11,45.0205,-93.218,1612577695
Vuktyl,-4.61,-4.61,100,90,RU,10.98,63.8567,57.3094,1612577696
Kendari,87.64,87.64,54,65,ID,1.3,-3.945,122.4989,1612577697
Belmonte,78.8,78.8,20,83,BR,6.91,-15.8631,-38.8828,1612577698
Togur,12.42,12.42,100,96,RU,8.28,58.3631,82.8265,1612577699
Westport,33.57,37.4,1,81,US,4.61,41.1415,-73.3579,1612577701
Bowen,84.2,84.2,75,65,AU,10.36,-20.0167,148.2333,1612577704
Virginia Beach,45.41,46.4,75,87,US,9.22,36.8529,-75.978,1612577516
Puerto Lempira,74.55,74.55,81,91,HN,7.25,15.2667,-83.7667,1612577707
Macao,68.76,69.8,0,77,MO,5.75,22.2006,113.5461,1612577708
Ilulissat,10.4,10.4,99,34,GL,12.66,69.2167,-51.1,1612577513
Hong Kong,68.41,69.01,0,73,HK,4.72,22.2855,114.1577,1612577432
Olafsvik,38.25,38.25,100,77,IS,24.43,64.8945,-23.7142,1612577589
Provideniya,8.58,8.58,100,93,RU,5.99,64.3833,-173.3,1612577158
Cherepovets,-0.29,-0.29,100,92,RU,9.55,59.1333,37.9,1612577714
Puerto Escondido,80.6,80.6,75,69,MX,5.75,15.85,-97.0667,1612577526
Kalmunai,75.87,75.87,66,88,LK,10.31,7.4167,81.8167,1612577716
Mashhad,42.8,42.8,0,45,IR,9.22,36.297,59.6062,1612577591
Dordrecht,43.32,44.01,100,94,NL,1.01,51.81,4.6736,1612577660
Mahébourg,78.8,78.8,40,78,MU,9.22,-20.4081,57.7,1612576974
Antalaha,73.4,73.4,77,88,MG,4.81,-14.9003,50.2788,1612577720
Dwārka,67.37,67.37,0,50,IN,13.56,22.2394,68.9678,1612577722
Qasigiannguit,10.4,10.4,100,34,GL,12.66,68.8193,-51.1922,1612577723
Deep River,24.91,25.0,90,58,CA,9.22,46.1001,-77.4995,1612577724
Lüderitz,68.9,68.9,0,57,NA,20.85,-26.6481,15.1594,1612577725
Faanui,81.63,81.63,4,64,PF,3.8,-16.4833,-151.75,1612577133
Srednekolymsk,-19.46,-19.46,0,84,RU,2.77,67.45,153.6833,1612577530
Beringovskiy,-5.89,-5.89,95,87,RU,6.46,63.05,179.3167,1612577531
Utmanzai,46.4,46.4,0,81,PK,4.61,34.188,71.7629,1612577730
Talnakh,-27.4,-27.4,63,83,RU,4.9,69.4865,88.3972,1612577570
Coquimbo,60.8,60.8,90,88,CL,4.61,-29.9533,-71.3436,1612577507
Erenhot,17.26,17.26,100,94,CN,7.78,43.6475,111.9767,1612577734
La Ronge,-22.0,-22.0,73,69,CA,9.22,55.1001,-105.2842,1612577735
Kuala Selangor,78.4,78.8,20,83,MY,2.3,3.35,101.25,1612577736
Geraldton,68.0,68.0,90,73,AU,20.71,-28.7667,114.6,1612577707
Port Hardy,41.7,42.8,90,87,CA,3.44,50.6996,-127.4199,1612577706
Cabo San Lucas,70.65,71.6,20,56,MX,11.5,22.8909,-109.9124,1612577074
Camacha,55.4,55.4,40,82,PT,18.41,33.0833,-16.3333,1612577537
Pitimbu,78.8,78.8,0,83,BR,4.61,-7.4706,-34.8086,1612577695
Arlit,65.08,65.08,0,25,NE,9.84,18.7369,7.3853,1612577742
Oddur,64.4,64.4,1,92,SO,13.53,4.1213,43.8894,1612577744
Bambous Virieux,76.57,78.8,75,83,MU,10.36,-20.3428,57.7575,1612577745
Chokurdakh,-19.62,-19.62,0,85,RU,12.44,70.6333,147.9167,1612577281
Kaili,77.59,77.59,100,73,ID,2.37,-3.4626,120.2147,1612577748
Naviraí,65.37,65.37,0,77,BR,2.66,-23.065,-54.1906,1612577750
Chui,59.68,59.68,0,87,UY,6.15,-33.6971,-53.4616,1612577271
Pimenta Bueno,74.79,74.79,100,95,BR,0.45,-11.6725,-61.1936,1612577564
Mount Gambier,66.2,66.2,40,59,AU,13.8,-37.8333,140.7667,1612577183
Karakol,22.19,22.19,73,69,KG,3.53,42.4907,78.3936,1612577754
Muroto-misakicho,55.4,55.4,40,47,JP,2.3,33.2833,134.15,1612577756
Mandalgovi,7.36,7.36,48,90,MN,12.8,45.7625,106.2708,1612577757
Chaohu,42.8,42.8,75,100,CN,11.18,31.6,117.8667,1612577758
Adrar,60.8,60.8,100,42,MR,11.25,20.5022,-10.0711,1612577538
Tambacounda,75.2,75.2,0,43,SN,13.8,13.7539,-13.7586,1612577760
San Miguel de Tucumán,75.2,75.2,0,78,AR,2.53,-26.8241,-65.2226,1612577665
Bandar-e Lengeh,66.2,66.2,3,88,IR,6.91,26.5579,54.8807,1612577762
Eyl,70.12,70.12,32,79,SO,10.49,7.9803,49.8164,1612577570
Airai,69.4,69.4,100,90,TL,5.84,-8.9266,125.4092,1612577764
Pemangkat,79.88,79.88,100,83,ID,10.18,1.1667,108.9667,1612577765
Kavieng,83.32,83.32,66,72,PG,1.9,-2.5744,150.7967,1612577374
Lake Shasta,52.21,64.4,1,34,US,6.91,40.6804,-122.3708,1612577768
Sitka,35.6,35.6,90,87,US,6.91,57.0531,-135.33,1612577485
Antofagasta,66.2,66.2,90,72,CL,8.05,-23.65,-70.4,1612577680
Fairbanks,-6.92,-2.2,90,65,US,3.31,64.8378,-147.7164,1612577474
Cham,39.65,41.0,100,100,CH,1.14,47.1821,8.4636,1612577773
Oga,41.05,48.0,75,93,IT,14.97,46.4631,10.347,1612577774
Penzance,39.29,41.0,93,87,GB,6.91,50.1186,-5.5371,1612577775
Brigham City,32.5,34.0,90,80,US,3.76,41.5102,-112.0155,1612577776
Weyburn,-16.6,-16.6,100,69,CA,18.41,49.6668,-103.8511,1612577778
Lebu,57.45,57.45,13,92,CL,2.01,-37.6167,-73.65,1612577779
Maungatapere,71.98,71.98,100,56,NZ,6.55,-35.75,174.2,1612577780
Uyuni,52.11,52.11,91,67,BO,11.56,-20.4597,-66.825,1612577781
Hobart,77.13,80.01,40,46,AU,14.97,-42.8794,147.3294,1612577782
Plettenberg Bay,67.26,67.26,0,90,ZA,5.28,-34.0527,23.3716,1612577783
Chernyshevskiy,-31.7,-31.7,95,85,RU,1.74,63.0128,112.4714,1612577530
Upernavik,7.88,7.88,100,71,GL,5.61,72.7868,-56.1549,1612577712
Sterling,38.84,39.99,1,45,US,9.22,39.0062,-77.4286,1612577664
Los Llanos de Aridane,54.25,60.8,0,51,ES,9.22,28.6585,-17.9182,1612577787
Narrabri,69.89,70.0,90,88,AU,17.27,-30.3167,149.7833,1612577789
Santa Rosa,83.37,84.2,75,65,PH,6.91,14.3122,121.1114,1612577790
Simao,64.81,64.81,0,61,CN,1.28,22.7886,100.9748,1612577791
Taksimo,-4.92,-4.92,90,80,RU,2.8,56.3444,114.8794,1612577792
Bay Roberts,33.64,34.0,75,93,CA,27.63,47.5999,-53.2648,1612577793
Abonnema,80.55,80.55,0,82,NG,4.43,4.7084,6.7931,1612577794
Leningradskiy,-8.66,-8.66,100,87,RU,7.52,69.3833,178.4167,1612577795
Samaná,75.24,75.24,4,87,DO,6.76,19.2056,-69.3369,1612577796
Praskoveya,32.23,32.23,0,87,RU,11.03,44.7444,44.2031,1612577798
Bayevo,28.33,28.33,100,98,RU,6.78,53.2833,80.7667,1612577799
Vao,78.73,78.73,2,81,NC,9.28,-22.6667,167.4833,1612577800
Vostok,6.98,6.98,100,92,RU,4.16,46.4856,135.8833,1612577801
Luan,41.2,45.0,100,94,CH,5.64,46.3592,6.9759,1612577803
Tonantins,72.61,72.61,100,98,BR,2.28,-2.8731,-67.8022,1612577804
Gunjur,64.4,64.4,0,77,GM,5.75,13.2019,-16.7339,1612577771
Siaya,66.43,66.43,61,79,KE,3.58,0.0612,34.2882,1612577806
Klaksvík,35.6,35.6,75,75,FO,13.8,62.2266,-6.589,1612577362
Hualmay,70.02,70.02,93,81,PE,7.61,-11.0964,-77.6139,1612577809
Camopi,72.61,72.61,100,98,GF,2.75,3.1655,-52.3158,1612577810
Ygatimi,66.78,66.78,0,86,PY,2.82,-24.0833,-55.5,1612577811
Salalah,68.0,68.0,0,68,OM,3.44,17.0151,54.0924,1612577555
Araouane,76.46,76.46,100,16,ML,7.31,18.9048,-3.5265,1612577814
Luba,80.6,80.6,20,89,GQ,8.05,3.4568,8.5547,1612577815
Bengkulu,82.11,82.11,99,69,ID,4.54,-3.8004,102.2655,1612577567
Hasaki,53.28,55.0,20,54,JP,2.3,35.7333,140.8333,1612577819
Abū Zabad,57.99,57.99,21,35,SD,17.98,12.35,29.25,1612577820
Lagoa,58.21,58.21,93,86,PT,15.59,39.05,-27.9833,1612577821
Redding,64.4,64.4,1,34,US,6.91,40.5865,-122.3917,1612577585
Znamenskoye,34.43,34.43,100,98,RU,9.04,57.1281,73.8282,1612577823
Kahului,70.02,73.4,40,56,US,8.05,20.8947,-156.47,1612577541
Vitim,0.7,0.7,100,90,RU,7.34,59.4511,112.5578,1612577646
Acapulco de Juárez,80.6,80.6,40,69,MX,2.3,16.8634,-99.8901,1612577820
Esperance,62.6,62.6,75,82,AU,10.36,-33.8667,121.9,1612577827
Magdagachi,-9.89,-9.89,100,85,RU,4.21,53.45,125.8,1612577830
West Lorne,17.33,19.0,78,57,CA,1.01,42.6001,-81.5998,1612577832
Rassvet,27.14,27.14,0,84,RU,15.1,46.8333,40.75,1612577833
Bilibino,-6.86,-6.86,100,79,RU,3.58,68.0546,166.4372,1612577834
Dolores,59.22,59.22,0,78,AR,6.82,-36.3132,-57.6792,1612577835
Ponta Delgada,57.6,57.99,75,94,PT,11.5,37.7333,-25.6667,1612577836
Nanhai,52.07,52.07,0,76,CN,6.13,30.1282,111.7784,1612577837
Santa Maria,64.4,64.4,0,88,BR,2.3,-29.6842,-53.8069,1612577763
Mufumbwe,66.25,66.25,100,96,ZM,1.57,-13.6833,24.8,1612577840
Pīshvā,50.92,51.8,90,81,IR,9.22,35.308,51.7267,1612577841
Ancud,68.0,68.0,0,60,CL,11.5,-41.8697,-73.8203,1612577226
Port Macquarie,85.55,87.01,100,53,AU,1.01,-31.4333,152.9167,1612577583
Loreto,63.1,63.1,0,22,MX,11.23,22.2667,-101.9667,1612577844
Cartagena del Chairá,73.71,73.71,100,94,CO,1.21,1.3349,-74.8429,1612577845
Matiri,62.13,62.13,100,100,TZ,2.26,-10.75,34.9,1612577846
Mount Isa,89.6,89.6,87,43,AU,9.22,-20.7333,139.5,1612577283
Katsuura,51.12,53.01,20,53,JP,8.05,35.1333,140.3,1612577846
Narganá,79.07,79.07,93,87,PA,7.05,9.4428,-78.5906,1612577850
Båtsfjord,25.41,25.41,100,91,NO,18.5,70.6345,29.7185,1612577852
Dikson,-31.04,-31.04,22,85,RU,10.76,73.5069,80.5464,1612577853
Lavrentiya,3.54,3.54,100,92,RU,13.2,65.5833,-171.0,1612577383
Calamar,78.8,78.8,20,94,CO,5.75,10.2511,-74.9146,1612577855
Torrington,29.23,32.0,34,97,US,10.2,41.8007,-73.1212,1612577856
Manaure,78.78,78.78,88,69,CO,13.73,11.7751,-72.4445,1612577858
Puerto Nariño,73.4,73.4,75,100,CO,1.25,-3.7703,-70.3831,1612577859
Khorinsk,-4.77,-4.77,77,87,RU,2.01,52.1657,109.7726,1612577860
Sucúa,70.47,70.47,99,78,EC,1.95,-2.4667,-78.1667,1612577861
Zelenets,-5.8,-5.8,90,84,RU,11.18,61.8849,50.7489,1612577863
Yar-Sale,-18.56,-18.56,100,88,RU,11.16,66.8333,70.8333,1612577305
Kloulklubed,77.0,77.0,90,100,PW,3.44,7.0419,134.2556,1612577865
Port Hedland,87.8,87.8,40,58,AU,9.22,-20.3167,118.5667,1612577762
Kimbe,83.62,83.62,34,77,PG,5.23,-5.5502,150.1429,1612577867
Diamantino,75.29,75.29,100,85,BR,1.77,-14.4086,-56.4461,1612577868
Linxia Chengguanzhen,32.09,32.09,100,66,CN,1.54,35.6003,103.2064,1612577869
Ferkessédougou,77.92,77.92,93,26,CI,3.0,9.6,-5.2,1612577870
Ippy,73.27,73.27,25,21,CF,7.0,6.2679,21.2247,1612577871
Oktyabr'skiy,23.31,23.31,100,97,RU,9.06,54.4815,53.471,1612577872
Trairi,78.26,78.26,15,80,BR,9.17,-3.2778,-39.2689,1612577874
Alekseyevka,14.59,14.59,100,91,RU,13.38,50.6309,38.6903,1612577875
Tanout,60.62,60.62,0,30,NE,13.76,14.9709,8.8879,1612577876
Vestmanna,35.6,35.6,75,75,FO,13.8,62.1564,-7.1664,1612577877
Lambaréné,76.95,76.95,100,91,GA,1.79,-0.7001,10.2406,1612577878
Fort Smith,42.01,42.8,1,52,US,5.75,35.3859,-94.3986,1612577683
Novobirilyussy,8.92,8.92,97,94,RU,5.1,56.9514,90.6661,1612577880
Seymchan,-17.03,-17.03,81,85,RU,0.49,62.8833,152.4333,1612577881
Ankazoabo,72.46,72.46,100,93,MG,2.68,-22.2833,44.5167,1612577882
Beyneu,40.12,40.12,100,86,KZ,19.77,45.3167,55.2,1612577719
Gornopravdinsk,33.53,33.53,100,97,RU,8.34,60.05,69.9,1612577697
Conceição do Coité,74.1,74.1,80,77,BR,12.88,-11.5639,-39.2828,1612577722
Quesnel,28.4,28.4,90,93,CA,2.3,52.9999,-122.5029,1612577708
Epe,78.76,78.76,11,90,NG,5.21,6.5841,3.9834,1612577707
Kalmar,16.5,19.0,75,92,SE,8.05,56.6616,16.3616,1612577889
Mpongwe,64.17,64.17,100,95,ZM,3.83,-13.5091,28.155,1612577890
Sayansk,2.68,2.68,100,94,RU,3.15,54.1088,102.1648,1612577891
Chesma,32.83,32.83,100,96,RU,16.37,53.8111,60.6533,1612577892
Guerrero Negro,60.37,60.37,0,69,MX,16.51,27.9769,-114.0611,1612577844
Nanortalik,20.21,20.21,0,73,GL,3.67,60.1432,-45.2371,1612577599
Neuquén,78.8,78.8,0,47,AR,12.01,-38.9516,-68.0591,1612577896
Aksu,22.44,22.44,47,88,CN,2.19,41.1231,80.2644,1612577897
Rome,29.32,30.2,90,74,US,10.36,43.2128,-75.4557,1612577898
Saint George,52.79,53.6,1,26,US,4.61,37.1041,-113.5841,1612577837
Kavaratti,80.55,80.55,76,75,IN,13.18,10.5669,72.642,1612577900
Sept-Îles,32.0,32.0,100,93,CA,10.36,50.2001,-66.3821,1612577673
Muros,50.02,51.01,98,80,ES,7.0,42.7762,-9.0603,1612577902
Barra de Tecoanapa,77.63,77.63,5,72,MX,4.61,16.5167,-98.75,1612577903
Serowe,67.17,67.17,100,93,BW,10.18,-22.3833,26.7167,1612577905
Wembley,66.49,66.99,0,55,AU,17.27,-31.9333,115.8,1612577906
Phra Phutthabat,82.0,82.0,6,52,TH,5.99,14.7253,100.7954,1612577907
Polessk,8.6,8.6,75,92,RU,4.47,54.862,21.1028,1612577908
Kastamonu Province,35.8,35.8,23,84,TR,2.08,41.5,33.6667,1612577911
Kelvington,-20.2,-20.2,99,63,CA,5.75,52.1667,-103.5343,1612577913
Marolambo,69.04,69.04,97,92,MG,1.34,-20.05,48.1167,1612577914
Collie,64.99,64.99,100,64,AU,1.01,-33.3667,116.15,1612577916
Berlevåg,26.8,26.8,100,92,NO,21.0,70.8578,29.0864,1612577917
Cascais,52.72,53.01,75,93,PT,9.22,38.6979,-9.4215,1612577918
Ilabaya,65.77,65.77,100,68,PE,3.02,-17.4208,-70.5133,1612577919
Paran'ga,4.57,4.57,100,93,RU,12.55,56.7039,49.4047,1612577920
Constitución,56.53,56.53,1,89,CL,0.96,-35.3333,-72.4167,1612577756
Padang,86.0,86.0,20,66,ID,2.3,-0.9492,100.3543,1612577923
George,60.8,60.8,0,100,ZA,3.44,-33.963,22.4617,1612577903
Māngrol,65.08,65.08,0,34,IN,16.75,21.1167,70.1167,1612577927
Sioux Lookout,-2.2,-2.2,90,71,CA,19.57,50.1001,-91.917,1612577929
Malanje,63.39,63.39,100,95,AO,2.89,-9.5402,16.341,1612577930
Mehtar Lām,42.3,42.3,0,44,AF,1.43,34.6714,70.2094,1612577931
São Félix do Xingu,73.81,73.81,100,92,BR,1.41,-6.6447,-51.995,1612577927
Sovetskiy,18.52,18.52,100,98,RU,6.33,61.3614,63.5842,1612577934
Yurginskoye,34.93,34.93,99,98,RU,11.77,56.8189,67.3921,1612577936
Provost,-16.6,-16.6,91,76,CA,8.05,52.3501,-110.2683,1612577937
Bermeo,51.94,53.01,75,100,ES,3.44,43.4209,-2.7215,1612577938
Jieshi,67.32,67.32,0,57,CN,4.25,22.8134,115.8257,1612577939
Pala,69.98,69.98,0,22,TD,7.34,9.3642,14.9046,1612577940
Souillac,78.8,78.8,75,83,MU,10.36,-20.5167,57.5167,1612577941
San Cristobal,67.44,67.44,100,81,VE,1.77,7.7669,-72.225,1612577883
Ganzhou,53.65,53.65,85,83,CN,2.1,28.8184,115.4327,1612577943
Sovetskaya Gavan',0.09,0.09,100,83,RU,5.77,48.9723,140.2878,1612577944
Barra do Bugres,74.97,74.97,97,82,BR,0.67,-15.0725,-57.1811,1612577946
Whitehorse,-2.97,-2.0,75,65,CA,3.44,60.7161,-135.0538,1612577695
Presidencia Roque Sáenz Peña,72.0,72.0,0,70,AR,1.01,-26.7852,-60.4388,1612577948
Bunia,67.64,67.64,100,60,CD,3.89,1.5667,30.25,1612577949
Tornio,8.6,8.6,75,85,FI,2.3,65.8481,24.1466,1612577950
São Filipe,69.78,69.78,12,75,CV,13.31,14.8961,-24.4956,1612577376
Cockburn Town,77.0,77.0,40,78,TC,13.8,21.4612,-71.1419,1612577952
San Juan,81.46,81.46,0,29,AR,5.23,-31.5375,-68.5364,1612577941
Nome,17.6,17.6,90,79,US,25.32,64.5011,-165.4064,1612577954
Acton,42.8,44.01,75,100,GB,2.3,51.509,-0.2762,1612577707
Dubbo,64.4,64.4,90,88,AU,8.05,-32.25,148.6167,1612577956
Morondava,80.35,80.35,95,83,MG,3.94,-20.2833,44.2833,1612577958
Coahuayana Viejo,69.8,69.8,40,83,MX,1.95,18.7333,-103.6833,1612577959
Naliya,60.37,60.37,0,43,IN,7.76,23.2667,68.8333,1612577962
Byron Bay,82.35,84.2,40,65,AU,8.05,-28.65,153.6167,1612577703
Japura,80.82,80.82,98,75,ID,3.78,-0.3167,102.35,1612577964
Sola,81.61,81.61,51,78,VU,11.7,-13.8833,167.55,1612577965
Dingle,82.22,82.22,91,77,PH,12.73,10.9995,122.6711,1612577873
Estelle,51.58,52.0,90,71,US,9.22,29.8458,-90.1067,1612577967
Kumul,30.0,30.0,0,82,CN,4.21,42.8,93.45,1612577964
Shikarpur,48.2,48.2,0,81,PK,4.0,27.9571,68.6379,1612577970
Muravlenko,4.08,4.08,100,95,RU,9.46,63.7898,74.523,1612577971
Helsingborg,18.14,21.0,1,85,SE,3.0,56.0467,12.6944,1612577972
Felanitx,73.4,73.4,20,28,ES,19.57,39.4696,3.1483,1612577973
Angoche,77.25,77.25,100,92,MZ,6.78,-16.2325,39.9086,1612577909
Millerovo,21.31,21.31,91,86,RU,15.7,48.9226,40.3967,1612577975
Pangnirtung,23.23,23.23,100,92,CA,3.98,66.1451,-65.7125,1612577976
Rio Grande,62.01,62.01,35,90,BR,13.35,-32.035,-52.0986,1612577977
Conway,45.93,46.99,90,65,US,6.91,35.0887,-92.4421,1612577979
Ulaanbaatar,-5.8,-5.8,0,71,MN,4.47,47.9077,106.8832,1612577981
Itarema,78.4,78.4,39,81,BR,11.88,-2.9248,-39.9167,1612577982
Owando,74.23,74.23,51,79,CG,1.77,-0.4819,15.8999,1612577707
Bara,68.95,68.95,0,24,NG,8.61,10.3744,10.7288,1612577984
Udachny,-36.54,-36.54,3,78,RU,2.21,66.4167,112.4,1612577985
Hambantota,73.4,73.4,40,100,LK,3.44,6.1241,81.1185,1612577986
Sisimiut,14.68,14.68,100,75,GL,13.89,66.9395,-53.6735,1612577863
Okhotsk,4.19,4.19,100,90,RU,6.02,59.3833,143.3,1612577988
Ranong,86.0,86.0,40,66,TH,3.44,9.9658,98.6348,1612577989
Yamada,46.54,46.54,38,67,JP,11.9,39.4667,141.95,1612577990
Batagay,-31.32,-31.32,100,82,RU,2.04,67.6333,134.6333,1612577991
Umluj,66.69,66.69,0,58,SA,6.96,25.0213,37.2685,1612577964
Iquitos,77.0,77.0,75,83,PE,6.91,-3.7481,-73.2472,1612577994
Port Hawkesbury,30.45,30.99,75,100,CA,5.75,45.6169,-61.3485,1612577996
Amapá,72.19,72.19,95,98,BR,2.06,1.0,-52.0,1612577997
Cururupu,75.78,75.78,5,86,BR,4.32,-1.8283,-44.8683,1612577998
Zhanakorgan,39.79,39.79,38,69,KZ,18.54,43.9098,67.2495,1612577999
Sistranda,21.2,21.2,20,86,NO,12.66,63.7256,8.834,1612578000
Nioro,67.44,67.44,97,49,GM,11.32,13.35,-15.75,1612577876
Egvekinot,-8.72,-8.72,100,93,RU,17.27,66.3167,-179.1667,1612578004
Ostrovnoy,15.89,15.89,100,94,RU,9.28,68.0531,39.5131,1612577653
Laas,35.83,39.99,40,93,IT,4.61,46.6166,10.7002,1612578006
Pangody,-14.22,-14.22,100,89,RU,12.12,65.85,74.4859,1612578008
Suntar,-33.84,-33.84,26,82,RU,2.77,62.1444,117.6319,1612577896
Russell,46.78,48.2,90,71,US,3.44,32.3502,-85.1999,1612578010
Maragogi,77.14,77.14,10,85,BR,7.83,-9.0122,-35.2225,1612577864
Asău,33.01,33.01,100,74,RO,1.03,46.4333,26.4,1612578013
Hervey Bay,87.4,88.0,40,45,AU,8.05,-25.2986,152.8535,1612577878
Dalbandin,45.37,45.37,0,45,PK,3.53,28.8947,64.4101,1612578015
Miraflores,66.65,69.8,1,35,MX,12.66,19.2167,-98.8083,1612578016
Pevek,-13.58,-13.58,100,85,RU,2.06,69.7008,170.3133,1612577556
Bārmer,51.13,51.13,0,46,IN,4.7,25.75,71.3833,1612578018
Te Anau,76.53,76.53,42,36,NZ,1.57,-45.4167,167.7167,1612577845
Avera,49.06,50.0,90,46,US,4.61,33.194,-82.5271,1612577824
Kinsale,39.54,41.0,75,93,IE,8.05,51.7075,-8.5306,1612578022
Constantine,53.6,53.6,0,40,DZ,5.75,36.365,6.6147,1612577880
Apsheronsk,37.6,37.6,100,75,RU,7.27,44.46,39.73,1612578024
Qarqīn,56.91,56.91,0,32,AF,27.07,37.4185,66.0436,1612578025
Ahvāz,62.6,62.6,75,55,IR,2.3,31.3203,48.6693,1612578026
Buzdyak,33.98,33.98,100,97,RU,7.7,54.5833,54.55,1612578027
Turukhansk,-25.87,-25.87,100,85,RU,6.6,65.8167,87.9833,1612578028
Hornepayne,4.53,4.53,100,94,CA,10.78,49.2138,-84.7705,1612578029
Warrington,42.26,44.01,90,93,GB,2.3,53.3925,-2.5802,1612577822
Lyngseidet,29.03,30.2,75,69,NO,16.11,69.5763,20.2189,1612578032
Toguchin,14.23,14.23,85,96,RU,6.06,55.2353,84.3858,1612578033
Barcelos,47.61,50.0,0,81,PT,10.36,41.5388,-8.6151,1612578034
Uvalde,53.49,54.0,1,58,US,9.22,29.3669,-99.767,1612578035
Taoudenni,71.46,71.46,98,27,ML,11.12,22.6783,-3.9836,1612578036
Nortelândia,75.13,75.13,98,87,BR,1.16,-14.4547,-56.8028,1612578037
Paluan,82.35,82.35,28,71,PH,11.7,13.416,120.4623,1612578040
Portland,48.43,51.01,75,81,US,5.75,45.5234,-122.6762,1612577729
Guáimaro,73.4,73.4,20,88,CU,6.91,21.05,-77.35,1612578043
Mariehamn,12.2,12.2,0,79,AX,3.44,60.0973,19.9348,1612577907
Lorengau,82.24,82.24,78,80,PG,7.81,-2.0226,147.2712,1612577999
Port Augusta,71.69,73.4,90,53,AU,12.66,-32.5,137.7667,1612577875
São Gabriel da Cachoeira,74.16,74.16,100,98,BR,2.59,-0.1303,-67.0892,1612578047
Sur,62.65,62.65,0,56,OM,5.48,22.5667,59.5289,1612578048
Hirara,73.4,73.4,20,56,JP,2.3,24.8,125.2833,1612578049
Lātehār,56.57,56.57,0,63,IN,2.08,23.75,84.5,1612578050
Biak,81.09,81.09,100,69,ID,2.3,-0.9131,122.8766,1612578051
Newcastle,75.63,78.01,90,88,AU,10.36,-32.9272,151.7765,1612578053
Mulanje,69.53,69.53,2,86,MW,2.24,-16.0316,35.5,1612578054
Khasan,30.9,30.9,100,92,RU,2.93,42.4308,130.6434,1612578055
Puerto Rico,62.38,62.38,0,79,AR,2.3,-26.796,-55.024,1612578056
Marawi,82.0,82.0,14,69,PH,4.0,7.9986,124.2928,1612578057
Nova Soure,76.15,76.15,77,77,BR,8.86,-11.2333,-38.4833,1612578058
Ulladulla,72.61,82.99,90,100,AU,4.61,-35.35,150.4667,1612577903
Inírida,76.26,76.26,100,94,CO,1.68,3.8653,-67.9239,1612578060
Inhambane,77.4,77.4,95,89,MZ,7.38,-23.865,35.3833,1612578061
Sicamous,32.72,35.6,61,69,CA,2.3,50.8331,-118.9856,1612578063
São Paulo,67.08,68.0,40,88,BR,5.75,-23.5475,-46.6361,1612577777
Richards Bay,74.73,74.73,90,90,ZA,2.13,-28.783,32.0377,1612577580
Kailua,70.5,73.4,90,60,US,10.36,21.4022,-157.7394,1612577901
Anloga,82.4,82.4,40,83,GH,4.61,5.7947,0.8973,1612578067
Rodrigues Alves,71.46,71.46,100,97,BR,0.38,-7.738,-72.6509,1612578068
Ise,46.99,46.99,0,78,JP,5.99,34.4833,136.7,1612578069
North Bend,48.06,48.99,90,93,US,4.61,43.4065,-124.2243,1612578071
Sambava,75.51,75.51,48,88,MG,5.44,-14.2667,50.1667,1612578072
Palmer,27.82,32.0,20,100,US,4.52,42.1584,-72.3287,1612578073
Roverud,10.96,12.2,0,92,NO,8.05,60.2521,12.055,1612578074
Xinxiang,55.35,55.35,19,34,CN,7.23,35.3089,113.8672,1612578076
Labuhan,82.92,82.92,77,76,ID,12.39,-6.8844,112.2051,1612578077
Tinskoy,5.86,5.86,99,94,RU,4.5,56.1525,96.9161,1612578078
Tura,65.57,65.57,0,44,IN,1.86,25.5198,90.2201,1612578079
Chapais,23.0,23.0,90,93,CA,13.8,49.7834,-74.8492,1612578080
Sal Rei,68.0,68.0,40,73,CV,14.97,16.1833,-22.9167,1612578081
Florence,45.97,48.99,40,100,IT,1.14,43.7667,11.25,1612577817
Manado,86.0,86.0,20,70,ID,5.75,1.487,124.8455,1612578079
Adjumani,71.51,71.51,100,24,UG,3.89,3.3779,31.7909,1612578085
Birecik,37.4,37.4,0,75,TR,5.7,37.0294,37.9903,1612578086
Mabaruma,73.89,73.89,57,87,GY,4.34,8.2,-59.7833,1612578087
Farkhor,43.59,44.6,20,65,TJ,4.99,37.4922,69.4036,1612578088
Tigil',3.45,3.45,100,89,RU,2.77,57.8,158.6667,1612578089
Mūlki,73.4,73.4,47,88,IN,4.05,13.1,74.8,1612578090
Kosa,34.12,34.12,100,99,RU,7.16,59.9445,54.9977,1612578091
Shache,24.17,24.17,31,89,CN,0.38,38.4167,77.2406,1612578092
Husavik,32.0,32.0,75,69,IS,13.8,66.0449,-17.3389,1612577879
Pisco,70.93,71.6,0,78,PE,5.75,-13.7,-76.2167,1612578054
Hay River,-27.4,-27.4,99,68,CA,3.44,60.8156,-115.7999,1612577854
Nouadhibou,62.6,62.6,40,77,MR,6.91,20.931,-17.0347,1612577678
Arrondissement de Bastia,53.13,55.0,90,87,FR,3.44,42.6667,9.3333,1612578098
Sūsangerd,62.6,62.6,75,55,IR,2.3,31.5608,48.1831,1612578062
Cumana,75.81,75.81,100,81,VE,14.72,10.4635,-64.1775,1612577943
Yichang,58.06,58.06,0,56,CN,1.36,30.7144,111.2847,1612577950
La Asuncion,76.62,76.62,77,82,VE,15.66,11.0333,-63.8628,1612578102
Chardara,51.42,51.42,100,45,KZ,16.53,41.2547,67.9692,1612578046
Moree,75.2,75.2,90,78,AU,12.66,-29.4667,149.85,1612578104
Monrovia,77.0,77.0,85,94,LR,7.0,6.3005,-10.7969,1612577939
Cap Malheureux,73.99,73.99,15,88,MU,1.99,-19.9842,57.6142,1612578052
Xai-Xai,76.91,76.91,100,89,MZ,7.47,-25.0519,33.6442,1612578110
Naze,73.4,73.4,20,60,JP,19.57,28.3667,129.4833,1612577947
Sungai Raya,81.09,81.09,100,77,ID,10.8,0.7,108.9,1612578112
Brae,33.8,33.8,90,55,GB,24.16,60.3964,-1.353,1612578113
Aljezur,53.01,53.01,100,100,PT,5.01,37.3191,-8.8033,1612578114
Harper,78.96,78.96,71,92,LR,5.82,4.375,-7.7169,1612578115
Santiago del Estero,73.72,73.72,0,40,AR,6.04,-27.7951,-64.2615,1612577980
Yining,53.11,53.11,91,82,CN,0.31,29.0361,114.5636,1612578118
Rocha,57.78,57.78,0,89,UY,4.07,-34.4833,-54.3333,1612577928
Sri Aman,79.34,80.6,40,89,MY,1.5,1.2376,111.4621,1612578120
Cam Ranh,80.6,80.6,20,57,VN,12.66,11.9214,109.1591,1612577821
Iquique,71.6,71.6,0,64,CL,6.91,-20.2208,-70.1431,1612578122
Ambilobe,73.44,73.44,100,92,MG,2.59,-13.2,49.05,1612578123
Khilok,-1.08,-1.08,51,88,RU,7.4,51.3674,110.4676,1612578124
Walvis Bay,62.76,64.99,2,94,NA,1.14,-22.9575,14.5053,1612578117
Fujin,-2.83,-2.83,0,87,CN,10.71,47.26,132.0322,1612578126
Sabang,81.86,81.86,1,77,ID,17.67,5.8933,95.3214,1612578090
Faya,51.8,51.8,0,76,SA,12.66,18.3851,42.4509,1612578129
Oussouye,71.6,71.6,0,73,SN,4.61,12.485,-16.5469,1612578128
Nabire,84.9,84.9,98,61,ID,2.48,-3.3667,135.4833,1612578131
Flinders,71.01,71.01,100,93,AU,8.99,-34.5833,150.8552,1612577950
La Rioja,50.0,50.0,20,87,ES,11.5,42.25,-2.5,1612578133
Port Alberni,40.96,43.0,90,95,CA,2.04,49.2413,-124.8028,1612578134
Lake Havasu City,61.11,62.6,1,19,US,4.61,34.4839,-114.3224,1612578135
Foam Lake,-20.2,-20.2,78,63,CA,5.75,51.65,-103.5343,1612578136
Lleida,55.53,60.01,0,54,ES,9.22,41.6167,0.6167,1612578138
Morgantown,31.86,33.8,90,51,US,5.75,39.6295,-79.9559,1612578037
Golspie,37.0,37.0,100,83,GB,8.01,57.9727,-3.978,1612578141
Strezhevoy,17.6,17.6,75,93,RU,11.18,60.7333,77.5889,1612578142
Mulegé,58.59,58.59,0,57,MX,7.72,26.8833,-111.9833,1612578143
Pontal do Paraná,59.99,62.01,3,94,BR,7.0,-25.6533,-48.5128,1612578144
Rafaela,72.99,75.0,0,41,AR,2.77,-31.2503,-61.4867,1612578032
Sinnamary,77.4,77.4,93,87,GF,14.07,5.3833,-52.95,1612578000
Codrington,66.69,66.69,7,59,AU,13.85,-38.2667,141.9667,1612578147
Ciparay,83.79,83.79,3,70,ID,4.0,-7.4249,108.4742,1612578149
Am Timan,67.53,67.53,94,25,TD,9.44,11.0297,20.2827,1612578150
Petra,45.95,45.95,52,92,JO,4.05,30.3222,35.4793,1612578151
Longyan,77.0,77.0,0,43,CN,0.36,25.1072,117.0225,1612578152
Zhuanghe,39.0,39.0,0,67,CN,6.49,39.7008,122.9911,1612578153
Maţāy,52.72,52.72,0,93,EG,7.09,28.419,30.7792,1612578154
Anadyr,1.18,1.4,40,85,RU,13.42,64.75,177.4833,1612578146
Elizabeth City,45.63,46.99,1,93,US,10.36,36.2946,-76.2511,1612577958
Brigantine,41.81,44.6,90,61,US,13.8,39.4101,-74.3646,1612578000
Tabou,78.57,78.57,0,91,CI,6.89,4.423,-7.3528,1612578158
Kumo,68.31,68.31,0,24,NG,11.61,10.0447,11.2122,1612578159
Guangzhou,71.8,72.0,0,56,CN,2.24,23.1167,113.25,1612577985
Turan,75.2,75.2,40,64,VN,1.81,16.0678,108.2208,1612578162
Sakakah,51.8,51.8,20,87,SA,6.91,29.9697,40.2064,1612578080
Vanavara,-0.38,-0.38,100,92,RU,6.42,60.34,102.2797,1612578164
Dvinskoy Bereznik,-8.9,-8.9,100,88,RU,10.38,62.8551,42.7072,1612578166
Saint Paul,6.8,6.8,1,66,US,20.71,44.9444,-93.0933,1612578167
