City,Tempature,Max Tempature,Cloudiness,Humidity,Country,Wind_Speed,Lat,Lng,Date/Time
Mount Gambier,55.4,55.4,90,88,AU,9.22,-37.8333,140.7667,1612643536
Olafsvik,34.81,34.81,72,81,IS,16.33,64.8945,-23.7142,1612643694
George Town,79.09,81.0,20,83,MY,4.61,5.4112,100.3354,1612643591
Tuktoyaktuk,-16.6,-16.6,75,76,CA,18.41,69.4541,-133.0374,1612643696
Bethel,38.97,41.0,1,30,US,13.8,41.3712,-73.414,1612643698
Provideniya,-0.22,-0.22,67,89,RU,7.72,64.3833,-173.3,1612643701
Hilo,73.65,77.0,1,57,US,4.61,19.7297,-155.09,1612643433
Ilulissat,21.2,21.2,20,42,GL,23.02,69.2167,-51.1,1612643704
Dikson,-29.04,-29.04,88,86,RU,10.74,73.5069,80.5464,1612643564
Pisco,73.36,75.2,75,73,PE,11.5,-13.7,-76.2167,1612643706
Souillac,77.0,77.0,20,83,MU,5.75,-20.5167,57.5167,1612643707
Khatanga,-35.34,-35.34,0,78,RU,7.78,71.9667,102.5,1612643708
Noumea,76.19,78.01,90,94,NC,3.44,-22.2763,166.4572,1612643598
Busselton,57.99,57.99,100,96,AU,1.01,-33.65,115.3333,1612643710
Kavaratti,81.1,81.1,3,60,IN,7.23,10.5669,72.642,1612643564
Grand Gaube,80.01,80.01,1,80,MU,3.0,-20.0064,57.6608,1612643713
Kulhudhuffushi,80.98,80.98,2,76,MV,8.63,6.6221,73.07,1612643714
Sulangan,80.22,80.22,28,81,PH,13.42,11.1373,123.7228,1612643715
Rikitea,77.95,77.95,100,72,PF,11.56,-23.1203,-134.9692,1612643433
Iskateley,-27.78,-27.78,93,85,RU,12.06,67.6803,53.1512,1612643718
Zhigansk,-40.88,-40.88,94,80,RU,11.48,66.7697,123.3711,1612643719
Port Alfred,71.01,71.01,72,94,ZA,3.0,-33.5906,26.891,1612643720
Asău,28.99,28.99,100,74,RO,3.65,46.4333,26.4,1612643721
Jamestown,21.2,21.2,1,53,US,21.85,42.097,-79.2353,1612643723
New Norfolk,57.6,60.01,82,68,AU,1.99,-42.7826,147.0587,1612643561
Grindavik,33.8,33.8,0,69,IS,17.27,63.8424,-22.4338,1612643725
Hobart,59.92,60.8,75,67,AU,11.5,-42.8794,147.3294,1612643481
Butaritari,81.05,81.05,99,81,KI,21.94,3.0707,172.7902,1612643717
Vao,77.59,77.59,0,86,NC,6.82,-22.6667,167.4833,1612643728
Abalak,33.13,33.13,100,97,RU,13.58,58.1286,68.5944,1612643729
Punta Arenas,53.29,53.6,20,50,CL,10.36,-53.15,-70.9167,1612643626
Pombas,69.8,69.8,75,60,CV,26.46,17.1503,-25.0201,1612643731
Jalu,61.95,61.95,0,36,LY,9.26,29.0331,21.5482,1612643732
Berlevåg,26.78,26.78,100,92,NO,25.14,70.8578,29.0864,1612643734
Lüderitz,70.93,70.93,0,56,NA,26.15,-26.6481,15.1594,1612643735
Hermanus,68.0,68.0,93,88,ZA,5.28,-34.4187,19.2345,1612643736
Albany,36.48,37.4,40,32,US,17.27,42.6001,-73.9662,1612643701
Yellowknife,-33.18,-29.99,1,67,CA,4.05,62.456,-114.3525,1612643142
Uvalde,73.13,73.4,1,18,US,16.11,29.3669,-99.767,1612643740
Saskylakh,-35.86,-35.86,96,81,RU,7.11,71.9167,114.0833,1612643741
Saint George,57.2,59.0,1,28,US,2.28,37.1041,-113.5841,1612643659
Kamenka,10.99,10.99,100,78,RU,11.41,51.3223,42.7678,1612643744
Cherskiy,-7.98,-7.98,0,81,RU,5.48,68.75,161.3,1612643747
Tura,57.2,57.2,69,60,IN,2.8,25.5198,90.2201,1612643730
Oistins,82.4,82.4,20,57,BB,18.41,13.0667,-59.5333,1612643522
Mogadishu,77.0,77.0,9,79,SO,19.33,2.0371,45.3438,1612643750
Sitka,35.6,35.6,75,93,US,3.29,57.0531,-135.33,1612643566
Nanortalik,21.58,21.58,0,79,GL,8.41,60.1432,-45.2371,1612643752
Sisimiut,20.61,20.61,1,78,GL,12.66,66.9395,-53.6735,1612643468
Katsuura,42.8,42.8,0,65,JP,6.91,35.1333,140.3,1612643754
Evensk,11.59,11.59,95,89,RU,19.01,61.95,159.2333,1612643755
Evanston,13.41,15.01,90,57,US,9.22,42.0411,-87.6901,1612643757
Westport,42.57,44.6,1,36,US,16.11,41.1415,-73.3579,1612643722
Mataura,64.63,64.63,2,66,NZ,1.72,-46.1927,168.8643,1612643716
Veţel,46.62,46.62,100,80,RO,1.23,45.9,22.8167,1612643761
San Juan Bautista,72.91,75.2,75,73,PE,11.5,-14.0108,-75.7358,1612643762
Guangyuan,30.0,30.0,93,77,CN,4.18,32.442,105.823,1612643763
Lebu,61.92,61.92,56,82,CL,6.46,-37.6167,-73.65,1612643764
Carnarvon,80.6,80.6,40,100,AU,13.8,-24.8667,113.6333,1612643724
Iqaluit,24.39,24.8,90,86,CA,16.11,63.7506,-68.5145,1612643767
Venice,78.44,80.01,20,83,US,17.27,27.0998,-82.4543,1612643536
Dzhida,-4.85,-4.85,71,88,RU,5.08,50.6772,106.1806,1612643770
Arman',5.2,5.2,100,87,RU,10.87,59.7,150.1667,1612643771
Praia da Vitória,60.46,60.8,40,88,PT,11.27,38.7333,-27.0667,1612643772
Hithadhoo,81.43,81.43,11,76,MV,12.53,-0.6,73.0833,1612643720
Morondava,81.09,81.09,99,81,MG,4.52,-20.2833,44.2833,1612643774
Barrow,-2.2,-2.2,90,78,US,11.5,71.2906,-156.7887,1612643507
Waipawa,61.92,64.0,95,82,NZ,5.75,-41.4122,175.5153,1612643777
Puerto Ayora,81.55,84.2,75,65,EC,17.27,-0.7393,-90.3518,1612643714
Ozernovskiy,16.72,16.72,100,95,RU,2.19,51.5,156.5167,1612643780
Cape Town,70.48,73.0,20,78,ZA,14.97,-33.9258,18.4232,1612643781
Mahébourg,77.0,77.0,20,83,MU,5.75,-20.4081,57.7,1612643769
Mandalgovi,4.89,4.89,0,87,MN,9.22,45.7625,106.2708,1612643586
Atuona,80.31,80.31,100,78,PF,21.94,-9.8,-139.0333,1612643719
Mgandu,62.02,62.02,78,94,TZ,2.21,-5.95,34.1333,1612643786
Crotone,57.0,57.0,60,53,IT,8.32,39.0851,17.1178,1612643761
Ushuaia,55.4,55.4,40,71,AR,19.57,-54.8,-68.3,1612643537
Lavrentiya,-7.98,-7.98,0,79,RU,2.98,65.5833,-171.0,1612643789
Necochea,68.2,68.2,0,65,AR,15.37,-38.5473,-58.7368,1612643792
Cairns,77.88,78.8,90,94,AU,3.06,-16.9167,145.7667,1612643497
Tasiilaq,33.8,33.8,40,69,GL,48.34,65.6145,-37.6368,1612643794
Sovetskiy,-5.73,-5.73,100,92,RU,12.73,61.3614,63.5842,1612643795
Gijang,37.4,37.4,33,87,KR,2.3,35.2442,129.2139,1612643796
Vaini,80.6,80.6,75,78,TO,8.05,-21.2,-175.2,1612643797
Avera,46.51,48.2,90,53,US,6.91,33.194,-82.5271,1612643798
Thompson,-25.6,-25.6,75,56,CA,16.11,55.7435,-97.8558,1612643799
San Rafael,91.06,91.06,0,20,AR,11.81,-34.6177,-68.3301,1612643800
Sicuani,59.07,59.07,74,54,PE,5.53,-14.2694,-71.2261,1612643802
Romny,2.98,2.98,33,93,UA,7.23,50.751,33.4747,1612643803
Yermakovskoye,16.59,16.59,77,93,RU,4.27,53.2831,92.4003,1612643804
Monrovia,77.0,77.0,40,94,LR,9.37,6.3005,-10.7969,1612643534
Sattahip,71.6,71.6,30,88,TH,4.61,12.6664,100.9007,1612643809
Vero Beach,75.15,77.0,75,83,US,11.5,27.6386,-80.3973,1612643810
Matara,74.75,74.75,99,88,LK,9.51,5.9485,80.5353,1612643812
Tamiahua,77.7,77.7,0,74,MX,8.88,21.2667,-97.45,1612643813
East London,75.36,75.36,10,86,ZA,3.33,-33.0153,27.9116,1612643814
Neuquén,86.0,86.0,0,39,AR,5.75,-38.9516,-68.0591,1612643534
Shimanovsk,-19.53,-19.53,0,85,RU,6.53,52.0,127.7,1612643817
Esim,80.22,80.22,0,87,GH,8.57,4.8699,-2.2405,1612643597
Comodoro Rivadavia,57.2,57.2,90,72,AR,17.27,-45.8667,-67.5,1612643819
Silvia,61.5,61.5,100,87,CO,0.51,2.611,-76.3785,1612643820
Severo-Kuril'sk,21.02,21.02,100,94,RU,15.21,50.6789,156.125,1612643821
Fare,82.09,82.09,15,66,PF,11.18,-16.7,-151.0167,1612643823
Nikolskoye,9.34,10.0,20,78,RU,15.66,59.7035,30.7861,1612643824
Saint Paul Harbor,35.6,35.6,20,60,US,10.87,57.79,-152.4072,1612643825
Batemans Bay,63.0,63.0,5,93,AU,4.0,-35.7167,150.1833,1612643826
Tak,66.11,66.11,8,66,TH,1.66,16.5833,98.8333,1612643827
Dunedin,58.64,60.01,1,80,NZ,1.99,-45.8742,170.5036,1612643546
Portobelo,84.07,89.01,99,99,PA,10.69,9.55,-79.65,1612643829
Alofi,82.4,82.4,75,83,NU,10.36,-19.0595,-169.9187,1612643830
Kapaa,70.27,72.0,40,64,US,2.21,22.0752,-159.319,1612643831
Bauta,82.2,82.4,75,69,CU,11.5,22.9828,-82.5464,1612643833
Northfield,-0.98,-0.4,40,71,US,19.57,44.4583,-93.1616,1612643834
Guerrero Negro,72.79,72.79,0,34,MX,7.61,27.9769,-114.0611,1612643835
Motala,6.8,14.0,0,79,SE,5.75,58.5371,15.0365,1612643836
Sambava,76.66,76.66,95,85,MG,3.96,-14.2667,50.1667,1612643837
Bambous Virieux,78.4,80.01,20,83,MU,5.75,-20.3428,57.7575,1612643570
Nishifukuma,47.14,48.0,75,81,JP,8.05,33.7667,130.4667,1612643839
Saldanha,68.0,68.0,26,77,ZA,8.05,-33.0117,17.9442,1612643840
Tateyama,42.8,42.8,0,65,JP,6.91,34.9833,139.8667,1612643835
Kanata,23.16,25.0,40,53,CA,26.46,45.3159,-75.8985,1612643842
Rupert,44.6,44.6,75,42,US,12.66,42.6191,-113.6772,1612643844
Arroyo de la Encomienda,42.35,44.01,90,87,ES,5.75,41.6096,-4.7969,1612643846
Wenling,54.41,57.0,39,93,CN,1.01,28.3669,121.36,1612643847
Flinders,64.58,64.99,0,84,AU,1.01,-34.5833,150.8552,1612643848
Lagoa,60.33,60.33,100,87,PT,24.14,39.05,-27.9833,1612643849
Ucluelet,48.07,48.2,40,87,CA,19.57,48.9329,-125.5528,1612643681
Touros,84.2,84.2,40,61,BR,11.5,-5.1989,-35.4608,1612643852
Shirokiy,-22.4,-22.4,13,86,RU,6.73,49.758,129.523,1612643853
Olinda,82.4,82.4,40,65,BR,8.05,-8.0089,-34.8553,1612643854
Bulgan,1.33,1.33,0,82,MN,2.59,48.8125,103.5347,1612643855
Kalino,9.63,9.63,100,95,RU,0.81,58.2504,57.6085,1612643856
Fuerte Olimpo,87.4,87.4,14,39,PY,5.66,-21.0415,-57.8738,1612643857
Leningradskiy,-13.09,-13.09,0,76,RU,6.69,69.3833,178.4167,1612643858
Ketchikan,36.32,37.4,90,100,US,9.22,55.3422,-131.6461,1612643717
Ihosy,72.25,72.25,100,83,MG,0.49,-22.4,46.1167,1612643862
São Filipe,69.57,69.57,62,76,CV,14.41,14.8961,-24.4956,1612643849
Fukuechō,55.6,55.6,0,74,JP,14.32,32.6881,128.8419,1612643864
Bredasdorp,69.8,69.8,97,78,ZA,6.91,-34.5322,20.0403,1612643864
Businga,74.1,74.1,3,37,CD,0.54,3.3333,20.8833,1612643650
Aykhal,-33.14,-33.14,5,81,RU,6.53,66.0,111.5,1612643590
Ostrovnoy,10.33,10.33,100,93,RU,10.18,68.0531,39.5131,1612643577
Richards Bay,73.76,73.76,80,85,ZA,6.15,-28.783,32.0377,1612643871
Chara,-15.74,-15.74,100,73,RU,0.89,56.9064,118.2631,1612643872
Torbay,34.25,35.01,90,100,CA,23.02,47.6666,-52.7314,1612643741
Cidreira,75.49,75.49,8,68,BR,7.94,-30.1811,-50.2056,1612643731
The Valley,80.11,82.4,40,78,AI,12.66,18.217,-63.0578,1612643853
Qandala,74.97,74.97,12,77,SO,2.35,11.472,49.8728,1612643879
Merauke,79.47,79.47,100,85,ID,13.33,-8.4667,140.3333,1612643880
Port Shepstone,75.4,75.4,100,88,ZA,16.71,-30.7414,30.455,1612643881
Vila Velha,82.18,82.4,20,74,BR,14.97,-20.3297,-40.2925,1612643882
Fuxin,13.48,13.48,0,78,CN,7.96,42.0156,121.6589,1612643884
Hasaki,35.42,37.4,20,87,JP,3.44,35.7333,140.8333,1612643885
Nikol'sk,-3.64,-3.64,99,90,RU,11.92,53.7189,46.0712,1612643588
Buin,70.43,71.6,0,60,CL,8.05,-33.7333,-70.75,1612643888
Nhulunbuy,80.6,80.6,75,83,AU,11.5,-12.2333,136.7667,1612643889
Kāliyāganj,56.26,56.26,49,66,IN,5.79,25.6333,88.3167,1612643890
Salinópolis,81.57,81.57,31,79,BR,10.29,-0.6136,-47.3561,1612643891
Lompoc,67.5,72.0,1,34,US,3.44,34.6391,-120.4579,1612643892
Boddam,34.2,35.6,90,69,GB,14.97,57.4667,-1.7833,1612643893
Palmer,40.35,41.0,20,35,US,14.97,42.1584,-72.3287,1612643895
San Vicente,76.78,76.78,0,43,AR,6.29,-26.6167,-54.1333,1612643896
Bluff,57.49,57.49,3,73,NZ,2.68,-46.6,168.3333,1612643836
Saint-Philippe,74.84,79.0,90,78,RE,4.61,-21.3585,55.7679,1612643864
Nantucket,42.44,42.8,1,56,US,23.02,41.2835,-70.0995,1612643899
Mossamedes,71.85,71.85,29,77,AO,8.5,-15.1961,12.1522,1612643902
Te Anau,61.34,61.34,8,64,NZ,1.86,-45.4167,167.7167,1612643903
Vostochnyy,0.81,1.4,20,71,RU,11.18,55.8167,37.8667,1612643904
Imeni Zhelyabova,2.32,2.32,100,93,RU,8.55,58.9544,36.5956,1612643905
Omboué,79.29,79.29,100,86,GA,5.28,-1.5746,9.2618,1612643906
‘Ewa Beach,71.76,73.4,75,53,US,3.44,21.3156,-158.0072,1612643908
Atbasar,29.8,29.8,100,98,KZ,31.29,51.8,68.3333,1612643909
Ribeira Grande,60.8,60.8,75,94,PT,18.41,38.5167,-28.7,1612643744
Adrar,60.49,60.49,100,33,MR,10.85,20.5022,-10.0711,1612643903
Oyem,70.05,70.05,18,92,GA,2.75,1.5995,11.5793,1612643913
Puri,66.2,66.2,20,77,IN,5.28,19.8,85.85,1612643777
Laas,36.01,39.0,75,93,IT,12.66,46.6166,10.7002,1612643880
Kargasok,33.46,33.46,94,94,RU,13.04,59.0556,80.8572,1612643917
Pacific Grove,61.0,66.0,1,59,US,8.05,36.6177,-121.9166,1612643725
Whitehorse,-14.49,-11.0,75,69,CA,2.3,60.7161,-135.0538,1612643878
Margate,41.43,42.01,100,90,GB,4.0,51.3813,1.3862,1612643922
Kirillov,5.0,5.0,40,61,RU,8.95,59.863,38.3813,1612643923
Coyhaique,77.0,77.0,75,31,CL,4.61,-45.5752,-72.0662,1612643736
Upernavik,19.96,19.96,97,77,GL,4.21,72.7868,-56.1549,1612643925
Sergeevka,33.71,33.71,100,97,KZ,18.43,53.88,67.4158,1612643926
Pontianak,75.2,75.2,90,100,ID,3.44,-0.0333,109.3333,1612643928
Pevek,-4.41,-4.41,63,87,RU,4.79,69.7008,170.3133,1612643744
La Asuncion,78.4,78.4,100,73,VE,18.03,11.0333,-63.8628,1612643673
Marawi,73.0,73.0,100,92,PH,5.99,7.9986,124.2928,1612643932
Bengkulu,76.69,76.69,97,74,ID,5.55,-3.8004,102.2655,1612643860
Vaitape,81.88,81.88,1,68,PF,10.4,-16.5167,-151.75,1612643934
Campos dos Goytacazes,71.6,71.6,75,94,BR,16.11,-21.75,-41.3,1612643935
Ceyhan,54.75,59.0,40,100,TR,5.75,37.0247,35.8175,1612643936
Ancud,75.2,75.2,0,50,CL,11.5,-41.8697,-73.8203,1612643836
Sarangani,81.55,81.55,100,73,PH,5.21,5.4033,125.4636,1612643938
Kieta,81.41,81.41,22,76,PG,7.16,-6.2167,155.6333,1612643939
Skara,8.35,16.0,10,92,SE,2.3,58.3866,13.4384,1612643940
Kavieng,81.99,81.99,70,71,PG,2.53,-2.5744,150.7967,1612643848
Ponta do Sol,50.59,55.0,14,66,PT,3.0,32.6667,-17.1,1612643892
Nelson Bay,69.53,70.0,90,100,AU,10.36,-32.7167,152.15,1612643944
Hamilton,34.86,36.0,1,32,US,3.44,39.1834,-84.5333,1612643945
Port Macquarie,69.48,69.8,90,100,AU,6.91,-31.4333,152.9167,1612643867
Usogorsk,-12.95,-12.95,100,87,RU,9.42,63.4106,48.6872,1612643947
Airai,60.12,60.12,92,100,TL,2.08,-8.9266,125.4092,1612643948
Tilichiki,9.34,9.34,100,89,RU,14.97,60.4667,166.1,1612643949
Serebryansk,32.0,32.0,40,69,KZ,11.18,49.6925,83.2892,1612643950
Avarua,84.2,84.2,20,74,CK,11.5,-21.2078,-159.775,1612643953
Mar del Plata,68.0,68.0,20,68,AR,17.27,-38.0023,-57.5575,1612643801
Codrington,57.96,57.96,99,75,AU,12.68,-38.2667,141.9667,1612643955
Castro,73.08,73.08,0,62,BR,3.11,-24.7911,-50.0119,1612643713
Tazovsky,-26.63,-26.63,66,86,RU,9.66,67.4667,78.7,1612643957
Tsimmerbude,1.4,1.4,14,85,RU,2.24,54.675,20.1347,1612643958
Arraial do Cabo,69.8,69.8,90,94,BR,6.91,-22.9661,-42.0278,1612643860
Meulaboh,76.01,76.01,75,91,ID,5.46,4.1363,96.1285,1612643960
Myre,28.69,32.0,100,74,NO,19.57,69.1036,15.9492,1612643962
São João da Barra,71.6,71.6,75,94,BR,16.11,-21.6403,-41.0511,1612643756
Mount Isa,75.2,75.2,75,94,AU,10.36,-20.7333,139.5,1612643965
Aksarka,-35.39,-35.39,96,81,RU,19.64,66.5606,67.7975,1612643967
Solnechnyy,-5.28,-5.28,100,89,RU,3.31,50.7214,136.6319,1612643968
Mareeba,77.86,78.8,90,94,AU,1.88,-17.0,145.4333,1612643969
Huntington,45.57,46.99,1,42,US,5.75,38.4193,-82.4452,1612643835
Bagotville,70.47,71.6,40,88,AU,3.65,-28.9833,153.4167,1612643974
Araouane,76.86,76.86,100,21,ML,17.96,18.9048,-3.5265,1612643976
Hanoi,62.6,62.6,0,88,VN,3.44,21.0245,105.8412,1612643836
Mombetsu,19.99,19.99,100,80,JP,8.99,44.3525,143.3525,1612643978
Kabompo,68.31,68.31,100,86,ZM,2.3,-13.5927,24.2008,1612643979
Punta Alta,74.35,74.35,16,60,AR,24.02,-38.8759,-62.0736,1612643980
Altay,21.85,21.85,84,89,CN,2.26,47.8667,88.1167,1612643981
Nederland,64.13,66.2,75,77,US,5.75,29.9744,-93.9924,1612643982
Dingzhou,32.0,32.0,0,59,CN,6.71,38.5131,114.9956,1612643983
Liverpool,38.35,39.2,75,87,GB,16.11,53.4106,-2.9779,1612643984
Uyuni,64.74,64.74,55,36,BO,6.82,-20.4597,-66.825,1612643986
Nuuk,24.4,24.8,20,46,GL,3.44,64.1835,-51.7216,1612643988
Sioux Lookout,-13.0,-13.0,90,64,CA,19.57,50.1001,-91.917,1612643989
Chui,79.03,79.03,0,62,UY,7.87,-33.6971,-53.4616,1612643846
Faya,49.1,50.0,0,93,SA,3.89,18.3851,42.4509,1612643991
Kattivākkam,71.6,71.6,20,83,IN,5.08,13.2167,80.3167,1612643992
Sibolga,75.43,75.43,63,82,ID,4.47,1.7427,98.7792,1612643857
Pho Chai,63.9,63.9,9,86,TH,7.7,16.3283,103.7703,1612643994
Corner Brook,34.57,39.2,90,93,CA,8.05,48.9667,-57.9484,1612643801
Luanda,80.6,80.6,50,78,AO,9.22,-8.8368,13.2343,1612643997
Portree,34.0,34.0,98,81,GB,8.99,57.4129,-6.1942,1612643998
Saint-Pierre,75.7,79.0,90,78,RE,4.61,-21.3393,55.4781,1612643999
Rio Grande,83.07,84.2,0,51,BR,8.05,-32.035,-52.0986,1612644000
Gari,1.38,1.38,100,94,RU,12.21,59.4307,62.3497,1612644001
Barcelos,46.69,48.2,0,71,PT,10.36,41.5388,-8.6151,1612643949
Harlow,40.15,42.01,90,100,GB,11.5,51.7766,0.1116,1612644004
Kamwenge,67.75,67.75,21,54,UG,1.32,0.1866,30.4539,1612643724
Kaohsiung City,63.21,66.99,20,82,TW,2.3,22.6163,120.3133,1612643834
Havelock,48.13,48.99,90,53,US,6.91,34.8791,-76.9013,1612643717
Tierralta,89.13,89.13,100,59,CO,5.01,8.1736,-76.0592,1612643826
Santa Cruz de la Sierra,88.48,89.6,40,48,BO,5.75,-17.8,-63.1667,1612643789
Althofen,37.44,42.8,20,93,AT,2.3,46.8818,14.4676,1612644012
Terra Santa,85.84,85.84,25,66,BR,5.48,-2.1042,-56.4869,1612644013
Cap Malheureux,80.01,80.01,0,80,MU,3.0,-19.9842,57.6142,1612643928
Viedma,75.99,75.99,1,49,AR,1.01,-40.8135,-62.9967,1612644015
Lata,51.4,53.01,63,79,PT,5.99,40.1629,-8.3327,1612644017
Rafrāf,65.3,66.2,40,48,TN,11.5,37.1904,10.1837,1612644018
Arrondissement de Bar-le-Duc,48.2,48.2,90,93,FR,3.44,48.75,5.1667,1612644019
Lerwick,33.8,33.8,90,60,GB,23.02,60.1545,-1.1494,1612644020
Padang,73.4,73.4,40,88,ID,2.3,-0.9492,100.3543,1612644021
Qaqortoq,30.2,30.2,75,40,GL,5.75,60.7167,-46.0333,1612644023
Santa Maria,77.7,77.7,2,57,BR,3.6,-29.6842,-53.8069,1612644025
Tabou,79.14,79.14,15,89,CI,8.59,4.423,-7.3528,1612644026
Jumla,26.67,26.67,0,72,NP,6.64,29.2747,82.1838,1612643940
Gladstone,75.2,75.2,47,78,AU,4.61,-23.85,151.25,1612643861
San Jerónimo,61.47,61.47,100,50,PE,2.37,-11.9472,-75.2829,1612644029
Oussouye,71.6,71.6,0,56,SN,2.3,12.485,-16.5469,1612644030
Baykit,10.98,10.98,100,92,RU,5.39,61.67,96.37,1612644031
Bouna,84.15,84.15,35,18,CI,3.22,9.2667,-3.0,1612644032
Quelimane,84.2,84.2,40,84,MZ,4.61,-17.8786,36.8883,1612644034
Manta,84.2,84.2,40,74,EC,8.05,-0.95,-80.7333,1612643859
Golubitskaya,30.09,30.2,100,86,RU,13.42,45.3222,37.2822,1612644036
Yulara,71.6,71.6,0,35,AU,8.05,-25.2406,130.9889,1612644037
Cabo San Lucas,75.42,79.0,1,53,MX,10.36,22.8909,-109.9124,1612643994
Treinta y Tres,82.24,82.24,0,55,UY,6.31,-33.2333,-54.3833,1612644041
Conchal,84.2,84.2,40,54,BR,11.5,-22.3303,-47.1725,1612643763
Constitución,64.35,64.35,22,72,CL,5.93,-35.3333,-72.4167,1612643964
Mundra,67.82,67.82,0,31,IN,13.6,22.85,69.7333,1612644045
Cam Ranh,75.2,75.2,40,73,VN,10.36,11.9214,109.1591,1612644046
Tucumã,79.23,79.23,90,89,BR,6.29,-0.1833,-50.05,1612644047
Bathsheba,82.4,82.4,20,57,BB,18.41,13.2167,-59.5167,1612643886
Poum,79.88,79.88,0,69,NC,4.43,-20.2333,164.0167,1612644049
Nizhniye Sergi,9.86,9.86,100,94,RU,15.7,56.6614,59.3033,1612644050
Cochrane,-3.96,-2.0,90,71,CA,6.91,51.1834,-114.4687,1612643782
Batagay-Alyta,-27.89,-27.89,99,84,RU,1.39,67.8006,130.4114,1612644053
Launceston,55.38,55.99,40,94,AU,5.75,-41.45,147.1667,1612644054
Dingle,74.3,74.3,48,92,PH,7.36,10.9995,122.6711,1612643869
Byron Bay,70.83,71.6,40,88,AU,3.31,-28.65,153.6167,1612644057
Teya,16.02,16.02,100,93,RU,9.17,60.3778,92.6267,1612644058
Yerbogachën,-11.83,-11.83,98,90,RU,3.87,61.2767,108.0108,1612644059
Tessalit,74.59,74.59,64,18,ML,11.01,20.1986,1.0114,1612644060
Beira,82.4,82.4,40,89,MZ,2.3,-19.8436,34.8389,1612644062
Deputatsky,-34.83,-34.83,2,85,RU,1.34,69.3,139.9,1612644063
Romblon,78.53,78.53,5,85,PH,15.14,12.5751,122.2708,1612644064
Salalah,75.2,75.2,40,69,OM,8.05,17.0151,54.0924,1612644066
Chicama,71.6,71.6,75,83,PE,10.36,-7.8447,-79.1469,1612644067
Cleveland,22.82,25.0,1,42,US,11.5,41.4995,-81.6954,1612643757
Muyezerskiy,15.6,15.6,100,96,RU,10.65,63.9333,31.65,1612644070
San Quintín,65.01,65.01,0,58,MX,8.41,30.4833,-115.95,1612644071
Broome,29.53,30.2,1,31,US,14.97,42.2506,-75.833,1612644072
Kilinochchi,75.27,75.27,48,87,LK,8.32,9.3961,80.3982,1612644075
General Roca,86.0,86.0,0,39,AR,5.75,-39.0333,-67.5833,1612643895
Isola della Scala,48.13,48.99,75,100,IT,1.14,45.2722,11.009,1612644077
Talnakh,-29.02,-29.02,0,74,RU,2.62,69.4865,88.3972,1612644079
Kaeo,64.0,64.0,100,90,NZ,7.25,-35.1,173.7833,1612644080
Along,50.22,50.22,13,53,IN,2.01,28.1667,94.7667,1612644081
Dzilam González,92.71,92.71,0,41,MX,1.39,21.2833,-88.9333,1612644082
Andilamena,65.66,65.66,91,94,MG,2.86,-17.0167,48.5833,1612644083
San Cristobal,87.8,87.8,40,51,VE,9.22,7.7669,-72.225,1612643902
Porto-Novo,86.0,86.0,20,79,BJ,12.66,6.4965,2.6036,1612643806
Atherton,38.3,39.0,100,82,GB,5.99,53.5237,-2.4935,1612644086
Skjervøy,30.04,30.04,100,94,NO,21.3,70.0311,20.9714,1612644087
Shahrud,42.22,42.22,100,85,IR,2.66,36.4182,54.9763,1612644088
Esperance,59.0,59.0,90,88,AU,9.22,-33.8667,121.9,1612643833
At-Bashi,22.28,22.28,100,78,KG,1.83,41.1702,75.8106,1612644091
Aklavik,-25.6,-25.6,90,75,CA,3.44,68.2191,-135.0107,1612644092
Mayumba,80.08,80.08,100,78,GA,1.28,-3.432,10.6554,1612644093
Kota Kinabalu,75.11,75.2,20,94,MY,4.61,5.9749,116.0724,1612644094
Izumo,39.2,39.2,40,100,JP,4.61,35.3667,132.7667,1612644095
Kununurra,78.8,78.8,100,100,AU,6.91,-15.7667,128.7333,1612644096
Pelym,-9.53,-9.53,100,90,RU,13.0,61.0108,61.9978,1612644097
Bratsk,10.4,10.4,100,85,RU,4.47,56.1325,101.6142,1612644098
Lingao,65.62,65.62,0,92,CN,6.31,19.9103,109.6859,1612643938
Lima,75.6,75.99,0,69,PE,10.36,-12.0432,-77.0282,1612644045
Qaanaaq,11.23,11.23,100,87,GL,9.46,77.484,-69.3632,1612644102
Yeppoon,77.0,77.0,75,73,AU,3.44,-23.1333,150.7333,1612644103
Bakaly,-1.95,-1.95,100,90,RU,15.32,55.1789,53.8028,1612644104
Rongcheng,48.81,48.81,36,80,CN,1.95,30.634,117.8517,1612644105
Clyde River,-14.8,-14.8,40,76,CA,4.03,70.4692,-68.5914,1612644106
San Andrés,86.0,86.0,20,70,CO,9.22,12.5847,-81.7006,1612644107
Ahipara,65.71,65.71,91,74,NZ,5.82,-35.1667,173.1667,1612644108
Port-Gentil,82.4,82.4,40,83,GA,8.05,-0.7193,8.7815,1612644109
Novoagansk,34.39,34.39,100,99,RU,9.28,61.9449,76.6625,1612644110
Kampong Thom,74.71,74.71,67,63,KH,5.77,12.7111,104.8887,1612644112
Atambua,73.96,73.96,97,90,ID,0.89,-9.1061,124.8925,1612644020
Berdigestyakh,-38.02,-38.02,67,80,RU,3.51,62.0989,126.6992,1612644114
Cabedelo,84.2,84.2,20,70,BR,9.22,-6.9811,-34.8339,1612643848
Aleksandrov Gay,19.29,19.29,100,90,RU,13.96,50.147,48.5704,1612644116
Cotoca,88.63,89.6,40,48,BO,5.75,-17.8167,-63.05,1612644117
Chokurdakh,-23.08,-23.08,43,87,RU,5.61,70.6333,147.9167,1612644119
Baoqing,-8.95,-8.95,74,88,CN,5.48,46.3317,132.2111,1612644120
Lys'va,10.8,10.8,100,95,RU,2.93,58.1086,57.8053,1612644121
Kirakira,79.48,79.48,87,84,SB,6.96,-10.4544,161.9205,1612643865
Mīzan Teferī,66.63,66.63,29,40,ET,0.38,6.9833,35.5833,1612644124
Verāval,68.92,68.92,0,33,IN,14.34,20.9,70.3667,1612644105
Bluefield,37.58,41.0,75,48,US,8.05,37.2698,-81.2223,1612644084
Preobrazheniye,15.31,15.31,56,88,RU,9.42,42.9019,133.9064,1612644127
Ubari,64.89,64.89,24,25,LY,14.0,26.5921,12.7805,1612643906
Vostok,-13.41,-13.41,100,90,RU,2.46,46.4856,135.8833,1612644129
Cambridge,18.9,19.99,90,62,CA,19.57,43.3601,-80.3127,1612643908
Tyukalinsk,31.57,31.57,100,98,RU,19.46,55.8732,72.1967,1612644131
Taku,30.2,30.2,0,59,CN,6.71,39.0211,117.6469,1612644132
Port Elizabeth,68.0,68.0,40,88,ZA,16.11,-33.918,25.5701,1612643861
Smithers,26.6,26.6,90,86,CA,2.59,54.7804,-127.1743,1612644098
Soyo,80.35,80.35,96,84,AO,8.48,-6.1349,12.3689,1612644136
Puerto Peñasco,64.0,64.0,0,69,MX,5.99,31.3167,-113.5333,1612644059
Onega,4.15,4.15,100,93,RU,5.35,63.9061,38.1404,1612644139
Fayaoué,79.77,79.77,0,75,NC,4.72,-20.65,166.5333,1612644107
Elmadağ,36.79,37.4,0,80,TR,5.79,39.9208,33.2308,1612644141
Tadine,78.85,78.85,0,78,NC,2.21,-21.55,167.8833,1612644142
Amapá,75.78,75.78,100,96,BR,3.38,1.0,-52.0,1612644143
Morehead,42.93,43.0,90,49,US,3.44,37.2711,-87.1764,1612644144
Benguela,73.9,73.9,53,82,AO,3.29,-12.5763,13.4055,1612644146
Chipata,66.56,66.56,100,95,ZM,3.8,-13.6333,32.65,1612644147
Soria,34.95,37.99,100,100,ES,3.47,41.6667,-2.6667,1612644148
Mazatlán,73.85,73.99,1,68,MX,6.91,23.2167,-106.4167,1612644149
Santiago,72.68,77.0,0,60,CL,8.05,-33.4569,-70.6483,1612643859
Löbau,26.65,27.0,100,91,DE,5.99,51.1,14.6667,1612644151
Tārūt,66.2,66.2,4,72,SA,8.05,26.5733,50.0369,1612644152
Birjand,48.2,48.2,0,12,IR,16.11,32.8663,59.2211,1612644153
Gamba,79.5,79.5,100,88,GA,6.13,-2.65,10.0,1612644154
Vuktyl,-18.87,-18.87,100,87,RU,12.37,63.8567,57.3094,1612644155
Khiv,34.16,34.16,0,80,RU,3.87,41.7543,47.9306,1612644157
Sirte,67.87,67.87,28,34,LY,13.87,31.2089,16.5887,1612644158
Egvekinot,-7.51,-7.51,3,76,RU,7.81,66.3167,-179.1667,1612643876
Popondetta,75.94,75.94,96,91,PG,1.9,-8.7537,148.2534,1612644160
Port Blair,78.06,78.06,13,76,IN,8.95,11.6667,92.75,1612644161
Khandyga,-26.45,-26.45,100,85,RU,1.61,62.6667,135.6,1612644162
Murmashi,23.0,23.0,75,93,RU,8.95,68.8154,32.8115,1612644163
Hong Kong,63.9,66.0,0,66,HK,3.98,22.2855,114.1577,1612644161
Bubaque,82.2,82.2,61,54,GW,17.94,11.2833,-15.8333,1612644165
Nyuksenitsa,-7.71,-7.71,100,89,RU,9.33,60.4128,44.2397,1612644167
Balsas,76.42,76.42,100,86,BR,1.86,-7.5325,-46.0356,1612644168
Neftçala,46.96,46.96,100,85,AZ,4.09,39.3742,49.2472,1612644169
Jiazi,62.22,62.22,0,74,CN,9.84,22.8779,116.067,1612644170
Deqing,46.63,48.0,0,92,CN,0.96,30.5448,119.9599,1612644139
Mayo,49.57,51.01,1,32,US,8.05,38.8876,-76.5119,1612644172
Oranjemund,64.54,64.54,9,93,NA,13.42,-28.55,16.4333,1612644173
Guaymas,76.53,78.01,1,33,MX,11.5,27.9333,-110.9,1612644174
Lahān,55.42,55.42,17,74,NP,2.17,26.7296,86.4951,1612644176
Nocupétaro,92.25,92.25,0,21,MX,6.6,19.05,-101.15,1612644177
Igarapava,78.8,78.8,75,65,BR,9.22,-20.0383,-47.7469,1612644179
Fortuna,52.45,54.0,1,87,US,10.36,40.5982,-124.1573,1612644181
Vanimo,76.73,76.73,96,87,PG,4.76,-2.6741,141.3028,1612644182
Coos Bay,47.95,51.01,90,76,US,3.42,43.3665,-124.2179,1612644183
Roebourne,77.58,77.58,13,70,AU,9.15,-20.7833,117.1333,1612644084
Moranbah,76.55,76.55,100,81,AU,10.65,-22.0016,148.0466,1612644186
Cururupu,81.52,81.52,100,72,BR,4.85,-1.8283,-44.8683,1612644187
Wamba,78.6,78.6,0,18,NG,4.59,8.9333,8.6,1612644188
Avilés,45.7,46.99,75,87,ES,6.91,43.5547,-5.9248,1612644190
Blora,73.74,73.74,2,93,ID,2.86,-6.9698,111.4186,1612644191
Harper,79.48,79.48,8,87,LR,8.61,4.375,-7.7169,1612644193
Wynyard,61.0,61.0,53,85,AU,5.01,-41.0,145.7167,1612644194
Korla,27.27,27.27,0,84,CN,3.98,41.7597,86.1469,1612644195
Marshall,45.86,46.99,1,57,US,9.22,34.3834,-86.3333,1612644196
Beloha,75.76,75.76,6,90,MG,6.71,-25.1667,45.05,1612644197
Virginia Beach,51.58,53.6,75,32,US,11.5,36.8529,-75.978,1612643655
Namatanai,80.02,80.02,74,77,PG,3.13,-3.6667,152.4333,1612644200
Faanui,81.9,81.9,1,68,PF,10.38,-16.4833,-151.75,1612644201
Tiksi,-25.38,-25.38,100,85,RU,6.29,71.6872,128.8694,1612644202
Kahului,71.24,71.6,20,60,US,4.61,20.8947,-156.47,1612643931
Norman Wells,-32.8,-32.8,75,68,CA,4.61,65.282,-126.8329,1612644204
Luga,1.83,1.83,0,93,RU,6.51,58.7372,29.8453,1612644206
Macia,72.95,72.95,100,91,MZ,2.71,-25.0269,33.0989,1612644207
Camopi,73.78,73.78,100,97,GF,2.91,3.1655,-52.3158,1612644208
La Ronge,-22.0,-22.0,71,57,CA,8.05,55.1001,-105.2842,1612644209
Gurmatkāl,63.34,63.34,81,51,IN,5.3,16.8667,77.4,1612644213
Svirsk,1.81,1.81,86,89,RU,4.61,53.0858,103.3325,1612644214
Fairbanks,-8.61,-6.0,90,77,US,1.7,64.8378,-147.7164,1612644216
Vardø,24.8,24.8,40,80,NO,24.16,70.3705,31.1107,1612644217
North Platte,12.2,12.2,90,67,US,8.05,41.1239,-100.7654,1612644218
Pointe Michel,77.25,78.8,40,78,DM,2.3,15.25,-61.3833,1612644219
Sobolevo,-1.95,-1.95,83,93,RU,8.3,54.4299,31.8996,1612644073
Dayong,59.0,59.0,1,94,CN,2.24,25.0209,118.2898,1612644222
Port Lincoln,61.12,61.12,80,72,AU,11.32,-34.7333,135.8667,1612644223
Abhā,49.05,50.0,0,93,SA,5.08,18.2164,42.5053,1612644224
Euclides da Cunha,89.02,89.02,99,27,BR,4.56,-10.5075,-39.0158,1612644064
Nacogdoches,57.4,61.0,90,76,US,6.91,31.6002,-94.6335,1612644226
Aldan,-21.86,-21.86,91,84,RU,3.56,58.6031,125.3894,1612644227
Coolum Beach,72.45,75.99,1,89,AU,2.48,-26.5333,153.1,1612644228
Kelheim,40.95,42.01,100,87,DE,10.36,48.9167,11.8667,1612644229
Livingstonia,66.27,66.27,99,85,MW,3.78,-10.606,34.1063,1612644230
Karaton,77.72,80.6,75,78,ID,9.22,-6.3424,106.1045,1612644231
Vikhorevka,10.4,10.4,100,85,RU,4.47,56.1201,101.1636,1612644232
Nishihara,65.3,66.2,75,88,JP,3.44,26.1842,127.7558,1612644234
Paso de Carrasco,84.63,86.0,0,37,UY,10.36,-34.8603,-56.0522,1612644235
Aitape,78.93,78.93,84,78,PG,4.23,-3.1374,142.3475,1612644236
San Patricio,70.72,71.6,75,64,US,14.97,28.017,-97.5169,1612644237
Gold Coast,75.33,75.99,40,83,AU,2.13,-28.0,153.4333,1612644238
Upington,82.4,82.4,0,39,ZA,8.05,-28.4478,21.2561,1612644239
Kunri,56.19,56.19,0,36,PK,4.61,25.1785,69.5691,1612644240
Vangaindrano,77.83,77.83,100,88,MG,8.16,-23.35,47.6,1612644241
Port Hedland,77.0,77.0,40,83,AU,5.75,-20.3167,118.5667,1612644243
Emba,13.84,13.84,96,95,KZ,17.76,48.8264,58.1442,1612644244
Makkah al Mukarramah,66.38,66.38,0,57,SA,7.43,21.4267,39.8261,1612644245
Nehe,-7.74,-7.74,0,87,CN,6.89,48.4833,124.8333,1612644246
Bilma,65.57,65.57,85,24,NE,6.49,18.6853,12.9164,1612644247
Narsaq,30.2,30.2,75,40,GL,5.75,60.9167,-46.05,1612644248
Oranjestad,82.4,82.4,20,65,AW,25.32,12.524,-70.027,1612644249
Kendari,75.97,75.97,100,92,ID,2.3,-3.945,122.4989,1612644250
Maceió,84.2,84.2,0,70,BR,16.11,-9.6658,-35.7353,1612644018
Íos,58.73,59.0,0,94,GR,9.22,36.7333,25.2833,1612644253
Neiafu,80.6,80.6,75,89,TO,10.36,-18.65,-173.9833,1612644254
Stykkisholmur,27.27,27.27,44,89,IS,10.11,65.0757,-22.7297,1612644255
Mt. Pleasant,49.75,50.0,90,81,US,13.8,32.7941,-79.8626,1612644257
Esna,62.6,62.6,0,63,EG,5.75,25.2934,32.554,1612644258
Yumen,27.5,27.5,97,71,CN,1.5,40.2833,97.2,1612644259
Kabare,63.05,63.05,74,79,CD,1.57,-2.4683,28.8242,1612644260
Saint Anthony,-0.47,1.4,75,55,US,18.41,45.0205,-93.218,1612644261
Longyearbyen,19.4,19.4,75,79,SJ,4.61,78.2186,15.6401,1612644263
Pingliang,34.47,34.47,100,64,CN,3.83,35.5392,106.6861,1612644264
Morant Bay,84.83,86.0,20,65,JM,24.16,17.8815,-76.4093,1612644265
Khovd,7.84,7.84,0,91,MN,1.36,48.0056,91.6419,1612644266
Ambulu,76.71,76.71,93,86,ID,2.24,-8.345,113.6058,1612644267
Mtsamboro,80.6,80.6,88,78,YT,6.91,-12.6998,45.0689,1612644268
Auki,79.68,79.68,100,83,SB,10.18,-8.7676,160.7034,1612644036
Khor,-15.77,-15.77,100,90,RU,2.8,47.8861,134.9464,1612644271
Pathein,71.33,71.33,3,89,MM,8.03,16.7833,94.7333,1612644272
Kot Radha Kishan,55.4,55.4,0,67,PK,2.62,31.1725,74.0997,1612644273
Klaksvík,33.8,33.8,75,60,FO,20.71,62.2266,-6.589,1612644274
Chingirlau,7.02,7.02,100,94,KZ,13.31,51.095,54.0814,1612644275
Lorengau,82.04,82.04,97,75,PG,3.51,-2.0226,147.2712,1612644276
Cuamba,71.4,71.4,100,95,MZ,1.03,-14.8031,36.5372,1612644278
Joshīmath,39.15,39.15,0,47,IN,13.31,30.5667,79.5667,1612644279
Tuatapere,63.09,63.09,1,64,NZ,3.65,-46.1333,167.6833,1612644281
Līsakovsk,11.71,11.71,96,91,KZ,25.88,52.5369,62.4936,1612644069
San Fernando del Valle de Catamarca,83.66,90.0,11,51,AR,8.01,-28.4696,-65.7852,1612644283
Udachny,-36.2,-36.2,0,80,RU,5.53,66.4167,112.4,1612644284
Westerly,42.26,43.0,1,45,US,17.27,41.3776,-71.8273,1612644285
Ulladulla,64.78,66.99,48,88,AU,4.61,-35.35,150.4667,1612644286
Powell River,40.21,41.0,90,100,CA,4.61,49.8496,-124.5361,1612644013
Nova Olímpia,88.03,88.03,94,55,BR,3.4,-14.7972,-57.2881,1612644288
Ayyampettāi,69.8,69.8,20,78,IN,6.91,10.9014,79.1798,1612644290
Makakilo City,71.8,73.4,75,53,US,3.44,21.3469,-158.0858,1612644291
Nouakchott,68.0,68.0,100,34,MR,8.05,18.0858,-15.9785,1612644292
Genhe,-19.71,-19.71,0,85,CN,2.13,50.7833,121.5167,1612644293
Rodrigues Alves,84.2,84.2,75,84,BR,5.75,-7.738,-72.6509,1612644295
Cabra,50.0,50.0,65,82,ES,7.54,37.4725,-4.4421,1612644296
Anadyr,-7.26,-7.01,10,77,RU,13.42,64.75,177.4833,1612644297
Barvinkove,21.34,21.34,95,87,UA,13.51,48.9097,37.0205,1612644298
Bonavista,32.76,34.0,100,100,CA,4.61,48.6499,-53.1147,1612644299
Valleyview,-20.2,-20.2,99,76,CA,5.75,55.0667,-117.2859,1612644301
Port Keats,81.57,81.57,71,79,AU,12.12,-14.25,129.55,1612644302
Suba,80.44,80.44,91,81,PH,22.48,10.8438,121.0102,1612644310
Hofn,34.11,34.11,97,88,IS,18.07,64.2539,-15.2082,1612644311
High Level,-22.0,-22.0,1,69,CA,3.44,58.5169,-117.136,1612644153
Zorritos,87.8,87.8,40,62,PE,10.36,-3.6805,-80.6782,1612644314
Bălţi,24.06,27.0,100,99,MD,4.0,47.7617,27.9289,1612644316
Burlington,44.64,46.0,20,39,US,23.02,39.8835,-74.6413,1612644052
Scottsbluff,15.8,15.8,90,73,US,16.11,41.8666,-103.6672,1612644318
Pangkalanbuun,74.75,74.75,100,98,ID,3.56,-2.6833,111.6167,1612644112
Itarema,80.85,80.85,28,75,BR,13.06,-2.9248,-39.9167,1612644322
Murray Bridge,55.35,57.99,80,93,AU,11.21,-35.1167,139.2667,1612644323
Geraldton,69.8,69.8,90,94,AU,21.85,-28.7667,114.6,1612644324
Quzhou,50.97,50.97,0,88,CN,1.99,28.9594,118.8686,1612644325
Santa Catarina de Tepehuanes,74.71,74.71,0,16,MX,13.47,25.35,-105.7333,1612644327
Caravelas,77.72,77.72,100,90,BR,9.46,-17.7125,-39.2481,1612644328
Mana,78.35,78.35,100,85,GF,13.35,5.6592,-53.7767,1612644330
Adelaide,60.21,63.0,75,77,AU,8.05,-34.9333,138.6,1612644301
Belyy Yar,10.4,10.4,96,92,RU,1.95,53.6039,91.3903,1612644332
Carutapera,82.62,82.62,46,73,BR,8.28,-1.195,-46.02,1612644333
Inhambane,77.54,77.54,83,86,MZ,8.12,-23.865,35.3833,1612644335
Ourinhos,79.57,79.57,29,63,BR,2.17,-22.9789,-49.8706,1612644337
Baghdad,57.2,57.2,90,94,IQ,11.5,33.3406,44.4009,1612644185
Ust-Kuyga,-27.49,-27.49,99,84,RU,3.13,70.0167,135.6,1612644339
Taltal,69.08,69.08,22,60,CL,5.57,-25.4,-70.4833,1612644340
Kunda,51.71,51.71,0,61,IN,5.14,25.7167,81.5167,1612644127
Bedēsa,59.23,59.23,23,62,ET,6.26,8.9,40.7833,1612644343
Villa Carlos Paz,84.43,88.0,0,50,AR,11.01,-31.4241,-64.4978,1612644195
Guamúchil,77.5,78.01,21,53,MX,5.01,25.4667,-108.1,1612644345
Santo Domingo,83.84,87.8,20,58,DO,13.8,18.5001,-69.9886,1612644340
Puerto Escondido,86.0,86.0,40,66,MX,12.66,15.85,-97.0667,1612644348
Finnsnes,23.0,23.0,90,80,NO,4.61,69.2296,17.9811,1612644349
Beidao,40.93,40.93,100,54,CN,1.92,34.5686,105.8933,1612644350
Paragominas,83.26,83.26,57,66,BR,4.29,-2.9667,-47.4833,1612644351
Tromsø,27.12,28.4,75,80,NO,8.05,69.6496,18.957,1612644353
Lázaro Cárdenas,81.75,81.75,0,60,MX,8.32,17.9583,-102.2,1612644354
Kiryat Gat,56.1,59.0,1,100,IL,1.92,31.61,34.7642,1612644357
Belz,39.6,41.0,0,31,FR,6.98,47.6751,-3.168,1612644358
Broken Hill,60.8,60.8,55,72,AU,12.66,-31.95,141.4333,1612644359
Saint-Ambroise,25.93,28.0,99,54,CA,12.66,48.5501,-71.3324,1612644362
Khani,48.2,48.2,90,81,GE,8.05,41.9563,42.9566,1612644363
Naryan-Mar,-27.58,-27.58,94,84,RU,12.08,67.6713,53.087,1612644364
Nagorsk,-6.63,-6.63,100,89,RU,8.05,59.3172,50.8078,1612644365
Kruisfontein,69.01,69.01,1,80,ZA,5.01,-34.0033,24.7314,1612644367
Kedrovyy,28.4,28.4,0,69,RU,8.95,56.1667,91.8167,1612644368
Marsabit,69.89,69.89,0,60,KE,7.52,2.3284,37.9899,1612644369
Erzin,59.0,59.0,0,79,TR,1.34,36.9559,36.2,1612644102
Shimoda,49.5,49.5,0,59,JP,11.74,34.6667,138.95,1612644371
Sālūmbar,55.4,55.4,0,40,IN,5.5,24.1333,74.05,1612644372
Polunochnoye,-13.79,-13.79,100,90,RU,13.13,60.8697,60.4153,1612644373
Paris,45.36,46.99,75,93,FR,4.61,48.8534,2.3488,1612644015
Sept-Îles,29.77,30.2,100,100,CA,3.44,50.2001,-66.3821,1612644375
Catarman,77.23,77.23,44,88,PH,9.8,12.4989,124.6377,1612644376
Plouzané,42.17,42.8,75,87,FR,3.44,48.3833,-4.6167,1612644378
Sosnovo-Ozerskoye,-12.8,-12.8,51,89,RU,5.28,52.5249,111.5418,1612644379
Elizabeth City,49.1,50.0,1,57,US,6.91,36.2946,-76.2511,1612644380
Almaznyy,21.2,21.2,0,79,RU,6.71,48.0448,40.045,1612644381
Lufilufi,82.18,82.4,90,83,WS,9.22,-13.8745,-171.5986,1612644382
Abhar,41.58,41.58,100,89,IR,4.9,36.1468,49.218,1612644362
Goderich,19.4,19.4,100,68,CA,19.57,43.7501,-81.7165,1612644385
Leshukonskoye,-16.74,-16.74,0,85,RU,9.62,64.8989,45.7622,1612644387
Atikokan,-11.88,-11.88,100,87,CA,12.33,48.7555,-91.6216,1612644388
Abu Kamal,54.09,54.09,0,52,SY,9.62,34.4506,40.9171,1612644389
Bajil,73.62,73.62,23,67,YE,9.93,15.0584,43.2851,1612644390
Karratha,77.52,77.52,18,70,AU,9.8,-20.7377,116.8463,1612644391
Srednekolymsk,-18.35,-18.35,41,84,RU,3.65,67.45,153.6833,1612644393
Bingöl,28.38,28.38,0,85,TR,5.01,38.8847,40.4939,1612644394
Lubango,64.83,64.83,61,56,AO,2.59,-14.9172,13.4925,1612644395
Sesheke,70.21,70.21,100,85,ZM,4.05,-17.4759,24.2968,1612644397
Kilemary,-5.73,-5.73,100,91,RU,8.9,56.7783,46.8659,1612644398
Vilhena,80.6,80.6,40,74,BR,4.61,-12.7406,-60.1458,1612644399
Auriflama,77.72,77.72,0,63,BR,6.55,-20.6856,-50.5547,1612644400
Agüimes,61.36,63.0,40,72,ES,12.66,27.9054,-15.4461,1612644402
Coquimbo,68.0,68.0,20,60,CL,13.8,-29.9533,-71.3436,1612644403
Monte Patria,84.63,84.63,0,26,CL,8.72,-30.6919,-70.9467,1612644404
Yichun,-12.6,-12.6,97,90,CN,2.46,47.7,128.9,1612644405
Vestmannaeyjar,38.79,38.79,43,74,IS,30.44,63.4427,-20.2734,1612644407
Husavik,30.2,30.2,90,80,IS,2.3,66.0449,-17.3389,1612644400
Ürümqi,3.2,3.2,90,92,CN,2.24,43.801,87.6005,1612644409
